State,city,restaurant_name,Location,cuisine_type,Dish Name,cost,rating,rating_count,order_id,latitude,longitude,distance_km,traffic_level,food_preparation_time,delivery_time,total_time,expected_time,delivery_delay,delay_category,order_hour,time_of_day,peak_hour_flag,day_of_the_week,sentiment_score,sentiment
Punjab,Chandigarh,Amritsari Food Platter,Sector 125 Mohali,Recommended,Cheese Fried Rice,199.0,4.7,26,1000000,12.943635,77.668999,5.18,High,33,32,65,58,7,Slightly Delayed,12,Afternoon,0,Weekday,0.925,Positive
Mizoram,Aizawl,Domino'S Pizza,Only_Dominos_Aizawl,Flavours Of India,Corn n Cheese Paratha Pizza,209.0,3.6,2,1000001,13.087679,77.505354,2.33,High,22,14,36,36,0,On Time,17,Evening,0,Weekday,0.65,Neutral
Karnataka,Bengaluru,Eatfit,Whitefield,Healthy Bowls,Beetroot Hummus Millet Bowl Veg,385.0,4.2,3,1000002,13.032998,77.553992,2.77,Low,44,13,57,59,-2,On Time,21,Night,1,Weekday,0.8,Positive
Delhi,New Delhi,Hira Sweets,Indirapuram,Tandoor Se,Laccha Paratha ( 1 Pc ),75.0,4.3,298,1000003,12.999665,77.648984,3.53,Low,25,13,38,43,-5,On Time,8,Morning,0,Weekday,0.825,Positive
Rajasthan,Jaipur,Burger Farm,Jagatpura,Cheese Burst Burger Meals,Devils Chicken Delight Cheeseburst Meal,293.3,5.0,3,1000004,12.889005,77.594627,3.85,Low,13,12,25,33,-8,Early,15,Afternoon,0,Weekday,1.0,Positive
Himachal Pradesh,Shimla,Premjees,Solan Town,Sweets,PANEER JALEBI LG,540.0,4.8,4,1000005,12.888999,77.671571,4.39,Medium,12,21,33,34,-1,On Time,20,Night,1,Weekday,0.95,Positive
Telangana,Hyderabad,Mcdonald'S,Pocharam,Group Sharing Combos,Burger Combo for 2: McChicken Burger with Pizza McPuff,444.76,4.7,12,1000006,12.864521,77.738362,4.58,Medium,43,22,65,65,0,On Time,23,Night,0,Weekday,0.925,Positive
Tripura,Agartala,Anna (Truly Veg),HGB Road,Thali,Anna office party thali,180.0,4.1,98,1000007,13.066544,77.484964,7.38,Medium,24,30,54,57,-3,On Time,14,Afternoon,1,Weekday,0.7749999999999999,Positive
Karnataka,Bengaluru,Baskin Robbins - Ice Cream Desserts,"Hope Farm, Varthur Main Road",Classic & Nuts Ice Creams,Butterscotch Ribbon Ice Cream,75.0,4.5,190,1000008,13.000279,77.66287,8.13,Medium,40,34,74,76,-2,On Time,8,Morning,0,Weekday,0.875,Positive
Karnataka,Bengaluru,Pizza Hut,Banashankari,Garlic Bread,Classic Bread Stix,119.0,4.0,120,1000009,13.027018,77.519103,5.32,High,10,30,40,35,5,On Time,18,Evening,0,Weekend,0.75,Positive
Rajasthan,Jaipur,Kfc,Vaishali Nagar,Epic Savings Bucket For 3-4 (Up To 32% Off),Ultimate Savings Chicken Bucket,749.0,4.1,271,1000010,12.855146,77.574343,13.7,Jam,10,107,117,68,49,Heavily Delayed,14,Afternoon,1,Weekend,0.7749999999999999,Positive
Punjab,Chandigarh,Burger King,Panchkula,Kings Collection ( Premium Burgers ),Chicken Tandoori Burger.,299.0,3.9,55,1000011,13.092477,77.459859,8.74,Medium,42,39,81,81,0,On Time,22,Night,0,Weekday,0.725,Neutral
Rajasthan,Jaipur,Dmb(Doodh Misthan Bhandar),Bani Park,Namkeen,Bikaneni Bhujiya,140.0,4.3,32,1000012,13.058111,77.490772,12.02,High,35,63,98,86,12,Slightly Delayed,15,Afternoon,0,Weekday,0.825,Positive
Jammu and Kashmir,Srinagar,Mad For Momos,City Walk,Momos 5 Pcs,Chicken Schezwan Momos [5 Pcs ],116.0,4.5,9,1000013,12.903085,77.545933,13.94,High,10,74,84,69,15,Slightly Delayed,17,Evening,0,Weekday,0.875,Positive
Maharashtra,Mumbai,Barbecue By Punjab Grill,"Seawoods, Merul",Recommended,Bhatti Ka Tandoori Murgh,425.0,4.1,5,1000014,12.895456,77.552596,3.28,Low,25,13,38,42,-4,On Time,19,Evening,1,Weekday,0.7749999999999999,Positive
Karnataka,Bengaluru,Lunchbox  Meals And Thalis,Navaratan Gardens,Kulcha Lunchbox,Pindi Chole with Kulcha Lunchbox,219.0,3.9,8,1000015,12.895851,77.719876,6.99,Medium,44,28,72,76,-4,On Time,8,Morning,0,Weekday,0.725,Neutral
Uttarakhand,Dehradun,Badmaash Kebabi,"Mall Of Dehradun , Miyanwala",Tandoori Special,Afghani Chicken,449.0,3.5,2,1000016,12.926061,77.672544,7.06,High,17,41,58,49,9,Slightly Delayed,9,Morning,0,Weekday,0.625,Neutral
Odisha,Bhubaneswar,China Belly By Wow! Momo,Patrapada,Starter,Chilli Chicken Dry,279.0,4.5,4,1000017,12.981189,77.741655,5.96,Low,44,24,68,72,-4,On Time,9,Morning,0,Weekday,0.875,Positive
Uttar Pradesh,Lucknow,La Pino'Z Pizza,Indira Nagar,Dotd,Capsicum Pizza Regular,125.0,4.0,14,1000018,12.957986,77.629721,1.12,Low,11,10,21,20,1,On Time,10,Morning,0,Weekend,0.75,Positive
Gujarat,Ahmedabad,Jay Bhavani Vadapav,Sola,Maggi,Vegetable Maggi Cheese (350 Gm),110.0,4.2,1,1000019,12.922807,77.522514,12.42,High,27,65,92,80,12,Slightly Delayed,16,Evening,0,Weekend,0.8,Positive
Uttar Pradesh,Lucknow,Kwality Walls Ice Cream And More,Kamla Nehru Nagar,Cornetto.,Cornetto Strawberry Vanilla (105ml x 3 pcs),101.69,4.8,3,1000020,13.002963,77.548297,2.56,Low,19,13,32,33,-1,On Time,21,Night,1,Weekday,0.95,Positive
Maharashtra,Mumbai,La Pino'Z Pizza,HAWRE CENTURION MALL,Dotd,Sweet Heat Pizza Regular,286.0,4.1,1,1000021,12.884873,77.545951,14.94,High,19,80,99,82,17,Heavily Delayed,23,Night,0,Weekend,0.7749999999999999,Positive
Kerala,Kochi,The Good Bowl,Edappally,Starters,Potato Chilli Shots with Mayo Dip,109.0,4.4,18,1000022,12.923036,77.547948,11.82,Medium,21,53,74,72,2,On Time,22,Night,0,Weekday,0.8500000000000001,Positive
Tripura,Agartala,Momo Magic Cafe,Gurkhabasti,Chinese,Chilli Potato (Dry),250.0,4.3,26,1000023,12.94159,77.651889,9.12,Medium,33,41,74,73,1,On Time,11,Afternoon,0,Weekend,0.825,Positive
Karnataka,Bengaluru,Cheesecake & Co.,Whitefield,Cake,Kitkat Cake (half Kg),750.0,2.3,5,1000024,12.964017,77.609242,3.16,Medium,31,33,64,48,16,Heavily Delayed,8,Morning,0,Weekday,0.32499999999999996,Negative
Gujarat,Ahmedabad,Kfc,Shivam Trade Centre,Flat 179 Meals/Bucket,Rice Bowlz- Smoky Red Chicken,229.52,5.0,3,1000025,13.046294,77.565627,8.22,Jam,14,66,80,51,29,Heavily Delayed,13,Afternoon,1,Weekday,1.0,Positive
Assam,Guwahati,Burger King,Christian Basti,Korean Spicy Fest(Limited Time Only),Korean Spicy Chicken Burger Meal.,449.0,4.3,1,1000026,12.899918,77.494727,4.66,Medium,31,25,56,54,2,On Time,15,Afternoon,0,Weekday,0.825,Positive
Maharashtra,Mumbai,Mojo Pizza - 2X Toppings,Nerul,"Thin Crust Pizzas [Big 10""]","Double Trouble Chicken THIN CRUST PIZZA [BIG 10""]",579.0,4.1,1,1000027,12.978559,77.456642,4.53,Low,13,16,29,35,-6,Early,19,Evening,1,Weekday,0.7749999999999999,Positive
Tamil Nadu,Chennai,House Of Idlies,Thyagaraya Nagar,Dinner Special,Mysore Masala Dosai,200.0,4.8,9,1000028,12.998104,77.51565,12.61,High,27,66,93,81,12,Slightly Delayed,13,Afternoon,1,Weekday,0.95,Positive
Telangana,Hyderabad,Sweet Truth - Cake And Desserts,Narsingi,Cheesecake Slices,Mango Cheesecake & Blueberry Cheesecake (Box of 2),349.0,4.9,11,1000029,12.861613,77.482241,6.33,Medium,39,35,74,68,6,Slightly Delayed,8,Morning,0,Weekday,0.9750000000000001,Positive
Karnataka,Bengaluru,Mcdonald'S,Yelahanka,Group Sharing Combos,Mc Crispy Chicken Burger + McChicken Burger + Fries (M),430.47,4.7,6,1000030,13.001886,77.685634,7.31,Medium,42,29,71,75,-4,On Time,20,Night,1,Weekday,0.925,Positive
Gujarat,Ahmedabad,Mcdonald'S,Satyamev Shivalik,Group Sharing Combos,Burger Combo for 2: McChicken Burger ,464.76,4.8,14,1000031,12.892631,77.483749,12.8,Medium,31,52,83,85,-2,On Time,15,Afternoon,0,Weekday,0.95,Positive
Tamil Nadu,Chennai,Sangeetha'S Desi Mane - Annanagar,Annanagar,Special Bread Toast,Cheese Chilly Toast,165.0,4.8,23,1000032,12.866263,77.667268,2.23,Low,15,13,28,28,0,On Time,17,Evening,0,Weekday,0.95,Positive
Goa,Panaji,Cafe Cotinga,Anjuna,Coffee,Espresso Tonic,420.0,3.5,40,1000033,13.087221,77.565698,9.32,High,20,49,69,61,8,Slightly Delayed,21,Night,1,Weekend,0.625,Neutral
Himachal Pradesh,Shimla,Logo Cafe,Lakkar Bazar,Breakfast,Masala Omelette,120.0,3.4,5,1000034,13.091408,77.472014,9.1,High,16,69,85,56,29,Heavily Delayed,15,Afternoon,0,Weekday,0.6,Neutral
West Bengal,Kolkata,Kfc,Diamond Harbour,Desserts & Beverages,7UP Can 300 ml,66.67,4.9,10,1000035,13.052099,77.693819,6.95,High,33,42,75,65,10,Slightly Delayed,18,Evening,0,Weekday,0.9750000000000001,Positive
Odisha,Bhubaneswar,Mughlai Restaurant,College Square,Rice,Veg Schezwan Fried Rice With Raita,235.0,4.3,44,1000036,12.926153,77.623889,12.62,Jam,17,102,119,71,48,Heavily Delayed,21,Night,1,Weekday,0.825,Positive
Tripura,Agartala,Taste With Me !,Dhaleswar,Rice,Steam Rice,70.0,4.5,134,1000037,12.874418,77.520728,14.2,Medium,21,60,81,81,0,On Time,20,Night,1,Weekday,0.875,Positive
West Bengal,Kolkata,Lunchbox - Meals And Thalis,Thakurpukur,Upwas Specials,Kuttu Paneer Pakoda (4 Pcs),179.0,5.0,1,1000038,13.021058,77.718404,7.51,Jam,19,58,77,53,24,Heavily Delayed,14,Afternoon,1,Weekend,1.0,Positive
Tripura,Agartala,Taste With Me !,Dhaleswar,Combo Item,Laxmi Bhog Rice With Katla Shorsho & Salad,200.0,4.7,5,1000039,12.960038,77.463577,7.39,Medium,20,31,51,53,-2,On Time,21,Night,1,Weekday,0.925,Positive
Uttar Pradesh,Lucknow,Pizza Hut,Bbd,"Buy 1 Pizza Get 2 Sides, 1 Pepsi Free",Buy 1 Get 3 - Medium Veg,489.0,3.4,3,1000040,12.88051,77.510546,8.03,Medium,29,52,81,65,16,Heavily Delayed,23,Night,0,Weekday,0.6,Neutral
Kerala,Kochi,Kfc,Ernakulam,Recommended,Korean Tangy Chicken Roll,139.0,4.4,73,1000041,12.973794,77.675614,11.12,Jam,32,84,116,80,36,Heavily Delayed,15,Afternoon,0,Weekday,0.8500000000000001,Positive
Uttar Pradesh,Lucknow,Kfc,Gomti Nagar,Epic Savings Bucket For 3-4 (Up To 32% Off),Big 12 - Chicken Bucket,799.0,4.4,29,1000042,12.858597,77.662813,10.35,High,31,59,90,76,14,Slightly Delayed,16,Evening,0,Weekday,0.8500000000000001,Positive
Assam,Guwahati,Kfc,Borbari,Burgers,2 Classic Chicken Krisper Burgers,334.88,4.9,10,1000043,13.07733,77.536782,4.12,Low,31,14,45,52,-7,Early,13,Afternoon,1,Weekday,0.9750000000000001,Positive
Haryana,Gurgaon,Chinese Wok,Sector 37,Recommended,Hunan Paneer Dry - Full,359.0,4.0,2,1000044,12.914695,77.468607,1.89,Low,12,10,22,24,-2,On Time,12,Afternoon,0,Weekday,0.75,Positive
Goa,Panaji,Friends Corner,Vasco,Non Veg Starters,Cheese Omelette,160.0,2.8,4,1000045,13.015631,77.707423,14.29,High,44,90,134,104,30,Heavily Delayed,10,Morning,0,Weekday,0.44999999999999996,Negative
Delhi,New Delhi,Nic Ice Creams,crossing republic,500 Ml Ice Creams,Roasted Almond Ice Cream 500ml,296.61,4.7,174,1000046,12.927928,77.544109,4.65,High,25,27,52,48,4,On Time,19,Evening,1,Weekday,0.925,Positive
Karnataka,Bengaluru,Rnr Biryani - Taste Of 1953,Beml Layout,Beverages,Coke 250ml,19.05,4.4,30,1000047,12.980017,77.508714,9.94,Medium,27,46,73,70,3,On Time,12,Afternoon,0,Weekday,0.8500000000000001,Positive
Meghalaya,Shillong,Lamee,Police Bazar,Pork,Pork Chilli Roasted Dry,478.0,4.0,46,1000048,12.986678,77.604819,12.6,Jam,22,98,120,76,44,Heavily Delayed,13,Afternoon,1,Weekend,0.75,Positive
Tripura,Agartala,Gopal Mistanna Bhandar,Hapania,Chaat,Kachori Chat,101.0,3.9,32,1000049,12.896214,77.723068,5.2,Medium,31,27,58,56,2,On Time,21,Night,1,Weekend,0.725,Neutral
West Bengal,Kolkata,Pizza Hut,Behala,Flash Sale Pizzas,Royal Spice Chicken Personal Pizza,409.0,3.3,1,1000050,13.092396,77.463064,9.9,Medium,18,54,72,61,11,Slightly Delayed,16,Evening,0,Weekday,0.575,Neutral
Nagaland,Kohima,Domino'S Pizza,Kohima Locality,Loaded Pizza,The 5 Chicken Feast Pizza,435.0,3.5,1,1000051,13.043783,77.679741,2.51,Low,15,13,28,29,-1,On Time,8,Morning,0,Weekday,0.625,Neutral
Goa,Panaji,Domino'S Pizza,Mapusa,Dominos Classics,Fresh Veggie Pizza,249.0,4.6,1,1000052,13.084875,77.621742,14.58,High,18,79,97,79,18,Heavily Delayed,22,Night,0,Weekday,0.8999999999999999,Positive
Rajasthan,Jaipur,Burger King,Jagatpura,Recommended,King Peri Peri Fries,159.0,4.3,61,1000053,13.073707,77.577635,1.81,Low,27,10,37,39,-2,On Time,17,Evening,0,Weekday,0.825,Positive
Punjab,Chandigarh,Caterspoint,Phase 7 Mohali,Pasta - Penne | Spaghetti,Creamy Pesto Chicken Penne Pasta,429.0,4.2,14,1000054,12.999475,77.673224,7.13,High,42,38,80,74,6,Slightly Delayed,12,Afternoon,0,Weekday,0.8,Positive
Meghalaya,Shillong,The Phoenix Residency,Nongthymmai Nongkhyriem,Indian Breads,Kashmiri Naan,100.0,4.5,12,1000055,13.080469,77.739747,8.52,Medium,31,37,68,69,-1,On Time,11,Afternoon,0,Weekday,0.875,Positive
Haryana,Gurgaon,Lunchbox - Meals And Thalis,"Sector 37,Gurgaon",Upwas Specials,Sabudana Khichdi & Curd Meal,239.0,4.6,38,1000056,12.872123,77.518762,12.07,Jam,42,94,136,94,42,Heavily Delayed,8,Morning,0,Weekday,0.8999999999999999,Positive
Telangana,Hyderabad,Labonel Fine Baking,Gachibowli,Brownies,Mixed Assorted Brownies [15 Pcs],2100.0,4.8,28,1000057,12.898996,77.493094,2.7,High,38,20,58,53,5,On Time,9,Morning,0,Weekday,0.95,Positive
Uttar Pradesh,Lucknow,The Bon Bon Bakers,Aliganj,Pastry,TIRAMISHU JAAR,160.0,4.3,2,1000058,12.861307,77.723865,7.17,Medium,25,29,54,57,-3,On Time,20,Night,1,Weekday,0.825,Positive
West Bengal,Kolkata,Sweet Truth - Cake And Desserts,Thakurpukur,Recommended,Chocolate Cheesecake Slice,199.0,4.9,13,1000059,12.931333,77.650686,5.2,High,13,29,42,38,4,On Time,10,Morning,0,Weekend,0.9750000000000001,Positive
Nagaland,Kohima,Aurora Restaurant & Lodging,Old NST,Chow,Veg Chow,190.0,4.6,14,1000060,12.947169,77.581396,5.37,High,19,33,52,44,8,Slightly Delayed,20,Night,1,Weekday,0.8999999999999999,Positive
Tamil Nadu,Chennai,Dindigul Thalappakatti - Since 1957,Poonamallee,Kebabs & Barbeque,Pepper Bbq Prawn,509.0,3.4,1,1000061,12.917837,77.621978,11.9,High,41,78,119,92,27,Heavily Delayed,9,Morning,0,Weekend,0.6,Neutral
Maharashtra,Mumbai,Suchali'S Artisan Bakehouse,Nerul,Freshly Baked Breads,Jalapeno & Cheddar Cheese Sourdough (420g),280.0,4.8,2,1000062,13.057184,77.673684,1.08,Low,41,10,51,50,1,On Time,16,Evening,0,Weekday,0.95,Positive
Karnataka,Bengaluru,Mcdonald'S,Rajarajeshwari Nagar,Cakes Brownies And Cookies,Chocochip Muffin,142.0,4.4,33,1000063,12.939188,77.68191,11.49,High,23,64,87,72,15,Slightly Delayed,23,Night,0,Weekend,0.8500000000000001,Positive
Delhi,New Delhi,Bhikharam Chandmal,Raj Nagar Extension,Namkeens,Aloo Bhujia 250g,102.0,2.5,3,1000064,12.920234,77.725968,12.35,Jam,29,105,134,82,52,Heavily Delayed,18,Evening,0,Weekend,0.375,Negative
Maharashtra,Mumbai,La Pino'Z Pizza,HAWRE CENTURION MALL,Dessert,Choco Lava,133.0,4.2,100,1000065,12.985674,77.578053,13.62,High,27,72,99,85,14,Slightly Delayed,21,Night,1,Weekday,0.8,Positive
Meghalaya,Shillong,Long Jhon Silver'S,Polo,Fried Rice,Pork Schezwan Fried Rice,180.0,4.6,49,1000066,12.885231,77.538023,9.78,Medium,12,45,57,55,2,On Time,16,Evening,0,Weekend,0.8999999999999999,Positive
Goa,Panaji,Mcdonald'S,Calangute,Burgers & Wraps,Korean Chicken Surprise Burger,91.42,4.0,17,1000067,13.050549,77.641899,5.67,Medium,15,25,40,42,-2,On Time,19,Evening,1,Weekday,0.75,Positive
Haryana,Gurgaon,Wendy'S Burgers,Old Gurgaon (Zone 6),Fries & Sides,Chicken Nuggets,129.0,3.8,36,1000068,12.868638,77.574718,6.98,Medium,27,31,58,59,-1,On Time,17,Evening,0,Weekday,0.7,Neutral
Karnataka,Bengaluru,Freshmenu,Yelahanka,Asian Bowls,Dragon Fire Egg Fried Rice,247.0,4.4,15,1000069,13.096722,77.62838,14.58,Medium,41,60,101,102,-1,On Time,12,Afternoon,0,Weekday,0.8500000000000001,Positive
Jammu and Kashmir,Srinagar,Kfc,Bemina,Sides And Dips,Peri Peri Chicken Leg Piece - 1 pc,115.0,4.3,1,1000070,13.043061,77.575996,13.34,High,18,75,93,75,18,Heavily Delayed,19,Evening,1,Weekend,0.825,Positive
Rajasthan,Jaipur,Kfc,Jaipur Textile Market,B2G1 Special Offer,American Classic Chicken Roll - DOTD,119.0,4.1,2,1000071,12.899679,77.495899,7.49,Medium,35,33,68,69,-1,On Time,19,Evening,1,Weekday,0.7749999999999999,Positive
Rajasthan,Jaipur,Mcdonald'S,Malviya Nagar,Extra Value Meal Large,Large EVM Big Spicy Chicken Wrap ,411.43,4.1,9,1000072,12.851381,77.590828,14.2,High,28,78,106,88,18,Heavily Delayed,18,Evening,0,Weekday,0.7749999999999999,Positive
Mizoram,Aizawl,Emerald 3:14,Khatla,Chicken Special,Chicken Kabab,260.0,3.3,3,1000073,13.053865,77.657275,12.52,Medium,15,60,75,68,7,Slightly Delayed,10,Morning,0,Weekday,0.575,Neutral
Maharashtra,Mumbai,Chaayos Chai+Snacks=Relax,Thane West,Recommended,Mom's Poha,159.0,4.5,388,1000074,13.026714,77.689785,13.62,High,11,75,86,69,17,Heavily Delayed,21,Night,1,Weekday,0.875,Positive
Haryana,Gurgaon,Pizza Hut,Sector 99,Appetizer,Cheezy Sprinkled Fries,109.0,2.3,3,1000075,13.032252,77.597998,10.56,Jam,37,89,126,83,43,Heavily Delayed,15,Afternoon,0,Weekday,0.32499999999999996,Negative
Meghalaya,Shillong,Mikado Restaurant,Police Bazar,Vegetarian Delights,Yellow Dal,79.0,4.3,91,1000076,13.042818,77.499571,13.01,High,29,73,102,84,18,Heavily Delayed,19,Evening,1,Weekday,0.825,Positive
Telangana,Hyderabad,Mcdonald'S,Pocharam,Mcsaver Combos (2 Pc Meals),New McSaver Chicken Surprise,179.0,4.1,12,1000077,12.868511,77.574406,13.48,High,23,73,96,80,16,Heavily Delayed,21,Night,1,Weekday,0.7749999999999999,Positive
Rajasthan,Jaipur,Rama Restaurant,Jhotwara,Tandoor,Butter Tandoori Roti,15.0,2.7,16,1000078,12.939616,77.685888,2.29,Low,42,29,71,55,16,Heavily Delayed,8,Morning,0,Weekday,0.42500000000000004,Negative
Uttar Pradesh,Lucknow,Subway,Gomti Nagar,Recommended,Tandoori Paneer Craver (10cm),169.0,3.2,4,1000079,12.878967,77.573858,14.51,Jam,13,128,141,74,67,Heavily Delayed,17,Evening,0,Weekday,0.55,Neutral
Meghalaya,Shillong,Madras Cafe,Police Bazar,Indian Breads,Butter Tandoori Roti,75.0,4.4,14,1000080,13.065776,77.658959,5.67,High,37,34,71,64,7,Slightly Delayed,11,Afternoon,0,Weekday,0.8500000000000001,Positive
Madhya Pradesh,Indore,Kfc,Phoenix,Epic Savings Bucket For 3-4 (Up To 32% Off),Ultimate Savings Chicken Bucket,748.57,4.2,12,1000081,13.005825,77.602164,7.16,Medium,39,37,76,71,5,On Time,20,Night,1,Weekday,0.8,Positive
Telangana,Hyderabad,Hotel Shubham Palace - Dhanturi Group Of Hotels,Nanakramguda,Breakfast,Idly (4 Pieces),85.0,4.3,133,1000082,12.932725,77.522367,12.09,Jam,27,97,124,79,45,Heavily Delayed,23,Night,0,Weekday,0.825,Positive
Tamil Nadu,Chennai,Bhavyam Veg,Annanagar,Evening Specials[Bv],Mysore Bonda,150.0,4.7,210,1000083,12.86589,77.688845,10.31,Medium,18,45,63,63,0,On Time,22,Night,0,Weekday,0.925,Positive
Punjab,Chandigarh,Burger King,Mohali Kharar Road Mohali,Kings Collection ( Premium Burgers ),Original Whopper Chicken(XL size Bun)+4pcs Crunchy Chicken Nuggets.,318.0,5.0,1,1000084,12.927746,77.475264,13.5,Medium,16,55,71,73,-2,On Time,9,Morning,0,Weekday,1.0,Positive
Maharashtra,Mumbai,Mcdonald'S,Dombivli East,Fries & Sides,4 Pcs Chicken Nuggets,110.0,4.5,51,1000085,12.931296,77.607467,6.61,Medium,24,29,53,54,-1,On Time,13,Afternoon,1,Weekday,0.875,Positive
Rajasthan,Jaipur,Domino'S Pizza,Jagatpura,Garlic Breads & Dips,Chicken Pepperoni Stuffed Garlic Bread,189.0,3.2,16,1000086,13.032402,77.512667,6.23,Medium,36,48,84,65,19,Heavily Delayed,22,Night,0,Weekend,0.55,Neutral
Goa,Panaji,Mustard Cafe - Hotel Astoria,Assagao,Mustard Classics,Vegetarian Mustard Curry (Shorshay Batar Jhol ),480.0,2.6,3,1000087,13.009389,77.47012,1.44,Medium,14,17,31,24,7,Slightly Delayed,17,Evening,0,Weekend,0.4,Negative
Madhya Pradesh,Indore,Mcdonald'S,Khajrana,Mcsaver Combos (2 Pc Meals),Black Forest Mcflurry (M) BOGO,139.0,4.5,2,1000088,13.071803,77.60088,7.48,Medium,14,33,47,48,-1,On Time,22,Night,0,Weekend,0.875,Positive
Goa,Panaji,Kfc,"Opp Bharat Petrol Pump,Bamman Vaddo, Siolim",Recommended,Spicy Zinger Burger and Popcorn Meal,449.0,5.0,4,1000089,12.968054,77.599869,11.14,Jam,31,86,117,79,38,Heavily Delayed,20,Night,1,Weekday,1.0,Positive
Rajasthan,Jaipur,Domino'S Pizza,Jagatpura,Dominos Classics,Margherita Pizza,109.0,4.1,142,1000090,12.879899,77.66207,5.22,High,32,32,64,57,7,Slightly Delayed,23,Night,0,Weekday,0.7749999999999999,Positive
Uttarakhand,Dehradun,Kalsang Friends Corner,Hathibarkala Salwala,Lamen Fried (Flat Noodles Dry),Vegetable Lamen Fried,339.0,2.9,3,1000091,13.028311,77.673425,7.48,Medium,22,49,71,56,15,Slightly Delayed,18,Evening,0,Weekday,0.475,Negative
Odisha,Bhubaneswar,Wow! China,Cda Sector 6,Noodles,Chicken Noodles In Hot Garlic Sauce Regular,325.0,4.4,74,1000092,13.040196,77.668337,4.07,Medium,15,22,37,35,2,On Time,15,Afternoon,0,Weekend,0.8500000000000001,Positive
Maharashtra,Mumbai,Freshmenu,Waghbil,All Day Breakfast,Great Brit English Breakfast,249.0,4.4,32,1000093,12.990319,77.572868,11.82,High,43,67,110,94,16,Heavily Delayed,14,Afternoon,1,Weekday,0.8500000000000001,Positive
Telangana,Hyderabad,Kfc,Kapil Tower,Rolls,Korean Tangy Roll & Popcorn Chicken Meal,319.0,2.9,13,1000094,13.042742,77.639507,1.85,Low,11,29,40,23,17,Heavily Delayed,20,Night,1,Weekend,0.475,Negative
Odisha,Bhubaneswar,Burger Singh(Big Punjabi Burgers),College Square,Gulaabo Combo @ 189,Veg United States Of Punjab Burger Value Combo,279.0,4.3,9,1000095,12.973449,77.623084,10.88,High,18,58,76,65,11,Slightly Delayed,22,Night,0,Weekend,0.825,Positive
Telangana,Hyderabad,The Good Bowl,Hafeezpet,Desserts,Mango Cheesecake,199.0,2.0,10,1000096,12.980683,77.576469,6.31,Jam,31,61,92,60,32,Heavily Delayed,22,Night,0,Weekend,0.25,Negative
Punjab,Chandigarh,Kfc,Sector 9,Rice Bowlz,Plain Rice Bowl,139.05,4.6,8,1000097,12.956885,77.629164,1.58,Low,35,11,46,46,0,On Time,14,Afternoon,1,Weekday,0.8999999999999999,Positive
Uttarakhand,Dehradun,The Belgian Waffle Co.,Jakhan,Recommended,Mini Waffle Box of 6 - Assorted,525.0,4.9,8,1000098,12.856355,77.734174,12.95,High,29,71,100,84,16,Heavily Delayed,22,Night,0,Weekday,0.9750000000000001,Positive
Jharkhand,Ranchi,Shree Gangaur,Jai Prakash Nagar,Namkeens,Aloo Chipps Masala (100 gms) (Per Pkt),65.0,4.9,21,1000099,12.876973,77.507868,7.83,Low,19,31,50,54,-4,On Time,18,Evening,0,Weekday,0.9750000000000001,Positive
Maharashtra,Mumbai,Olio - The Wood Fired Pizzeria,Panvel City,Cheese Burst Pizza,Cheeseburst - Farmhouse Pizza,439.0,4.5,19,1000100,12.857857,77.721732,9.39,High,30,52,82,71,11,Slightly Delayed,10,Morning,0,Weekday,0.875,Positive
Karnataka,Bengaluru,Lunchbox  Meals And Thalis,Kengeri Satellite Town,Paratha Lunchbox,Dum Aloo and Paratha Meal,249.0,4.0,2,1000101,13.009103,77.466037,11.25,Jam,20,85,105,68,37,Heavily Delayed,17,Evening,0,Weekend,0.75,Positive
Karnataka,Bengaluru,Mcdonald'S,Peenya,Mcsaver Combos (2 Pc Meals),McVeggie Burger + McAloo Tikki Burger,210.47,4.8,36,1000102,12.928589,77.542517,10.17,Jam,30,78,108,74,34,Heavily Delayed,18,Evening,0,Weekend,0.95,Positive
West Bengal,Kolkata,Subway,Pailan,Recommended,Egg'n Chicken Melt,256.17,5.0,3,1000103,12.977143,77.536444,11.23,Medium,27,47,74,75,-1,On Time,9,Morning,0,Weekday,1.0,Positive
Rajasthan,Jaipur,Dmb Sweets Pvt Ltd,Lal Kothi,Snacks,Khandvi,80.0,4.3,38,1000104,13.076892,77.63791,11.67,Jam,11,96,107,61,46,Heavily Delayed,16,Evening,0,Weekday,0.825,Positive
Uttar Pradesh,Lucknow,Mcdonald'S,Sushant Golf City,Sides,Piri Piri Seasoning,23.0,4.8,40,1000105,12.912323,77.489367,9.25,Low,38,35,73,79,-6,Early,12,Afternoon,0,Weekend,0.95,Positive
Kerala,Kochi,Zaatar Arabic Restaurant,Palarivattom,Chinese,Schezuan Chicken,310.0,4.2,3,1000106,12.952596,77.714704,6.12,Medium,31,27,58,59,-1,On Time,12,Afternoon,0,Weekday,0.8,Positive
Karnataka,Bengaluru,Udupi Grand,Yelahanka,Juices,Musk Melon Shake,115.0,4.9,42,1000107,13.038888,77.698565,4.4,Medium,25,21,46,47,-1,On Time,18,Evening,0,Weekend,0.9750000000000001,Positive
Manipur,Imphal,Kfc,Thangal Bazaar,Sides And Dips,French Fries - Large,155.68,4.4,483,1000108,12.9072,77.64562,13.64,Jam,33,104,137,91,46,Heavily Delayed,15,Afternoon,0,Weekend,0.8500000000000001,Positive
Telangana,Hyderabad,The Fisherman'S Wharf,Gachibowli,Soups,Manchow Soup Veg,280.0,2.0,9,1000109,12.869245,77.587524,14.58,Jam,11,125,136,72,64,Heavily Delayed,10,Morning,0,Weekday,0.25,Negative
Maharashtra,Mumbai,Pizza Hut,Nerul,Pasta,Cosy Comfort White Sauce Chicken Pasta,209.0,2.8,3,1000110,12.922438,77.729887,6.01,High,40,44,84,68,16,Heavily Delayed,16,Evening,0,Weekday,0.44999999999999996,Negative
West Bengal,Kolkata,Chandimata Mistanna Bhander,Behala,Mukho Misti,Bhujia,70.0,3.4,5,1000111,12.890305,77.699224,2.57,High,35,30,65,50,15,Slightly Delayed,23,Night,0,Weekend,0.6,Neutral
Tripura,Agartala,Kfc,Jay Nagar,Rolls,Double Chicken Roll,169.0,4.1,135,1000112,13.082424,77.599795,4.12,Low,16,16,32,37,-5,On Time,13,Afternoon,1,Weekend,0.7749999999999999,Positive
Jharkhand,Ranchi,Kfc,Lalpur,Desserts & Beverages,Choco Lava Cake,119.0,3.6,14,1000113,13.05203,77.660562,10.39,Jam,27,86,113,72,41,Heavily Delayed,16,Evening,0,Weekday,0.65,Neutral
Delhi,New Delhi,Mcdonald'S,Rohini,Double Patty Burgers & Meals,Large EVM McSpicy Chicken® Double patty Burger,498.0,5.0,4,1000114,13.008351,77.620079,3.42,Low,36,16,52,54,-2,On Time,22,Night,0,Weekday,1.0,Positive
Telangana,Hyderabad,Kfc,Santosh nagar,Recommended,Indian Tandoori Roll Chicken Meal,419.0,3.5,25,1000115,13.067865,77.626383,11.92,High,39,66,105,90,15,Slightly Delayed,15,Afternoon,0,Weekday,0.625,Neutral
Uttar Pradesh,Lucknow,Wow! Momo,Jankipuram,Steam Momo,Veg Pahari Feast Steam Momo,139.0,4.4,6,1000116,13.050918,77.549293,13.92,Medium,19,59,78,78,0,On Time,13,Afternoon,1,Weekday,0.8500000000000001,Positive
Odisha,Bhubaneswar,Wow! Momo,CDA Sector 6,Burger Momo [Moburg],Cheesy Veggie Moburg,149.0,4.8,28,1000117,12.896643,77.588625,14.49,Jam,40,111,151,101,50,Heavily Delayed,17,Evening,0,Weekday,0.95,Positive
Bihar,Patna,N Chennai Express,Patliputra Colony,Uttapam,Mix Veg Uttapam,120.0,4.8,24,1000118,13.07314,77.473436,1.13,High,25,12,37,34,3,On Time,13,Afternoon,1,Weekend,0.95,Positive
Telangana,Hyderabad,Kfc,Kapil Tower,Recommended,Thai Spicy Roll & Popcorn Chicken Meal,319.0,2.3,4,1000119,12.984836,77.557205,14.41,Medium,28,68,96,89,7,Slightly Delayed,19,Evening,1,Weekday,0.32499999999999996,Negative
West Bengal,Kolkata,Wow! China,Nemai Bhawan,Starter,Chicken Lollypop,325.0,3.7,7,1000120,13.05186,77.658749,11.36,High,42,63,105,91,14,Slightly Delayed,13,Afternoon,1,Weekday,0.675,Neutral
Delhi,New Delhi,Hira Sweets,Indirapuram,Snacks And Bakery,Veg. Patty,28.76,3.8,179,1000121,13.074023,77.735965,2.18,Low,15,10,25,28,-3,On Time,14,Afternoon,1,Weekday,0.7,Neutral
Tamil Nadu,Chennai,Ranga Sai Andhra Tiffins,Navalur,Breads,Chapati (2 Pcs),65.62,3.7,199,1000122,12.929501,77.738919,6.81,Medium,25,33,58,56,2,On Time,8,Morning,0,Weekday,0.675,Neutral
Karnataka,Bengaluru,Olio - The Wood Fired Pizzeria,Whitefield,Recommended,Veggie Volcano Pizza,349.0,4.0,44,1000123,12.877513,77.616717,10.8,High,13,56,69,60,9,Slightly Delayed,16,Evening,0,Weekday,0.75,Positive
Meghalaya,Shillong,Trelly,Laban,Chicken Noodles,Chicken Wanton Soup Chow,230.0,4.1,19,1000124,12.906984,77.631987,14.39,Medium,18,59,77,79,-2,On Time,12,Afternoon,0,Weekend,0.7749999999999999,Positive
Rajasthan,Jaipur,Mcdonald'S,Civil Lines,Mccafe,Caramel Frappe,285.71,4.0,1,1000125,12.956777,77.505716,3.3,Low,34,16,50,51,-1,On Time,23,Night,0,Weekend,0.75,Positive
Maharashtra,Mumbai,Veg Sizzel'S,Vasant Vihar,Kulfi,Malai Kulfi,145.0,5.0,11,1000126,13.054504,77.658592,2.79,Medium,32,15,47,47,0,On Time,20,Night,1,Weekday,1.0,Positive
Maharashtra,Mumbai,Chetak Sweet Point,Airoli,Monsoon Specials,Kala Jamun [ Pack Of 4 Pcs ],200.0,4.8,29,1000127,13.065183,77.471198,7.61,Low,13,25,38,47,-9,Early,8,Morning,0,Weekday,0.95,Positive
Delhi,New Delhi,Domino'S Pizza,Pratap Vihar,Cheese Burst - 3 New Flavours,Double Cheese Margherita Cheese Burst,298.0,4.5,1,1000128,12.851738,77.535406,14.55,High,14,81,95,75,20,Heavily Delayed,16,Evening,0,Weekday,0.875,Positive
Jharkhand,Ranchi,Attitude Cafe And Restaurant Nxt,mesra,Warps N Sandwich,Veg Grilled Wrap,80.0,3.8,4,1000129,12.977687,77.650509,14.6,High,35,81,116,96,20,Heavily Delayed,12,Afternoon,0,Weekday,0.7,Neutral
Uttarakhand,Dehradun,Handi Punjab Ki,Hathibarkala Salwala,Handi Palak,Palak Keema (veg),209.0,3.8,18,1000130,12.954353,77.543093,4.19,High,36,28,64,57,7,Slightly Delayed,8,Morning,0,Weekday,0.7,Neutral
Karnataka,Bengaluru,Chinese Wok,Kengeri Satellite Town,Dessert,Choco Lava,99.0,4.6,17,1000131,12.905527,77.464954,5.47,High,13,33,46,39,7,Slightly Delayed,8,Morning,0,Weekday,0.8999999999999999,Positive
Tamil Nadu,Chennai,Sangeetha'S Desi Mane - Annanagar,Annanagar,Rice And Bowls,Mushroom Biriyani,344.0,4.7,69,1000132,12.879966,77.699561,13.71,Jam,30,107,137,88,49,Heavily Delayed,11,Afternoon,0,Weekday,0.925,Positive
Karnataka,Bengaluru,Olio - The Wood Fired Pizzeria,Whitefield,Pasta Lunch Box,Lunch Box - Pollo Di Arrabbiata Pasta,349.0,4.9,2,1000133,12.934404,77.543099,11.29,Medium,34,52,86,83,3,On Time,21,Night,1,Weekend,0.9750000000000001,Positive
Punjab,Chandigarh,Krishnaz,Jal Vayu Vihar,Breads,Onion Naan with Gravy,129.0,4.7,12,1000134,13.085727,77.468932,14.61,High,20,82,102,81,21,Heavily Delayed,8,Morning,0,Weekday,0.925,Positive
Tamil Nadu,Chennai,Copper Kitchen,Chromepet,Desserts,Choco Beauty,220.0,3.9,6,1000135,12.930801,77.472436,13.5,Jam,40,106,146,97,49,Heavily Delayed,18,Evening,0,Weekday,0.725,Neutral
Gujarat,Ahmedabad,Lunchbox - Meals And Thalis,Sola,Paratha Lunchbox,Palak Paneer & Paratha Lunchbox,259.0,4.3,40,1000136,12.979698,77.525528,4.01,Low,26,22,48,46,2,On Time,18,Evening,0,Weekday,0.825,Positive
Kerala,Kochi,The Belgian Waffle Co.,Ravipuram,Recommended,Mini Waffle Box of 6 - Chocoholic's,525.0,5.0,5,1000137,13.025755,77.503405,11.64,High,16,64,80,66,14,Slightly Delayed,19,Evening,1,Weekday,1.0,Positive
Tamil Nadu,Chennai,Dou,Nungambakkam,Small Plates,Chicken Souvlaki Tacos,525.0,5.0,2,1000138,12.940907,77.68229,1.68,High,36,14,50,47,3,On Time,16,Evening,0,Weekend,1.0,Positive
Karnataka,Bengaluru,Subway,Yelahanka,Recommended,Cheesy Potato Delight Sandwich (10cm) + Coffee + Hashbrown,339.0,3.8,2,1000139,13.092946,77.546505,12.45,Medium,22,56,78,75,3,On Time,11,Afternoon,0,Weekend,0.7,Neutral
Uttar Pradesh,Lucknow,Lunchbox - Meals And Thalis,Aliganj,All Day Breakfast Box,Double Omelette & Wedges with Masala Bread,199.0,4.3,2,1000140,13.090612,77.691409,9.42,High,40,53,93,81,12,Slightly Delayed,16,Evening,0,Weekday,0.825,Positive
Haryana,Gurgaon,Domino'S Pizza,Vasant Kunj,Loaded Pizza,Veggie Paradise Pizza,279.0,4.7,90,1000141,12.912946,77.502154,14.39,High,13,77,90,74,16,Heavily Delayed,8,Morning,0,Weekday,0.925,Positive
Karnataka,Bengaluru,Itc Master Chef Creations,Yelhanka,Beverages,Alphonso Mango  Milkshake,297.0,4.7,3,1000142,12.974312,77.597864,14.44,High,18,79,97,79,18,Heavily Delayed,8,Morning,0,Weekday,0.925,Positive
Goa,Panaji,Domino'S Pizza,Mapusa,Recommended,Spiced Double Chicken,345.0,3.8,3,1000143,12.92522,77.656411,1.71,Low,39,10,49,50,-1,On Time,18,Evening,0,Weekday,0.7,Neutral
Telangana,Hyderabad,Mcdonald'S,Pocharam,Burgers & Wraps,McChicken Burger,152.0,4.3,507,1000144,12.92121,77.645597,3.25,Low,33,10,43,50,-7,Early,15,Afternoon,0,Weekday,0.825,Positive
Rajasthan,Jaipur,Shree Agarwal Caterers,Vidhyadhar Nagar,Namkeen,Gathiya,65.0,4.2,136,1000145,12.859222,77.630339,7.78,Medium,13,37,50,48,2,On Time,10,Morning,0,Weekday,0.8,Positive
Gujarat,Ahmedabad,Veg Darbar By Behrouz Biryani,Prahlad Nagar,Recommended,Subz-e-Biryani (Dum Veg Biryani - Serves 1),379.0,4.5,10,1000146,13.002391,77.727446,13.31,Jam,12,103,115,68,47,Heavily Delayed,23,Night,0,Weekday,0.875,Positive
Maharashtra,Mumbai,Shiv Sagar Veg Restaurant,Thane West,Rice /Noodles Chopsuey,Singapore Noodles,355.0,4.2,10,1000147,12.97567,77.518558,12.4,Jam,38,95,133,91,42,Heavily Delayed,17,Evening,0,Weekday,0.8,Positive
Manipur,Imphal,Le Zara,Thangmeiband,Dessert,Rasmalai,150.0,3.7,59,1000148,12.86287,77.598116,14.5,High,30,81,111,91,20,Heavily Delayed,19,Evening,1,Weekday,0.675,Neutral
Maharashtra,Mumbai,Haldiram'S Sweets And Namkeen,Thane Hiranandani Estate,Burfee Collection,Orange Burfee,182.0,4.6,35,1000149,12.919662,77.715198,9.65,Medium,21,43,64,63,1,On Time,21,Night,1,Weekend,0.8999999999999999,Positive
Meghalaya,Shillong,Trelly,Laban,Appetizers Fish,Fish Finger ,390.0,4.7,30,1000150,13.077066,77.473368,4.59,Medium,27,24,51,49,2,On Time,12,Afternoon,0,Weekday,0.925,Positive
Tripura,Agartala,Momo Magic Cafe,Gurkhabasti,Recommended,Veg Fried Rice                        ,240.0,3.1,18,1000151,12.90989,77.466766,1.35,Medium,14,24,38,24,14,Slightly Delayed,11,Afternoon,0,Weekday,0.525,Neutral
Rajasthan,Jaipur,Burger Farm,Vidhyadhar Nagar,Wraps And Meals,Farm Spicy Paneer Wrap Meal,304.2,4.0,53,1000152,12.886224,77.519991,4.12,Low,32,17,49,53,-4,On Time,15,Afternoon,0,Weekend,0.75,Positive
Madhya Pradesh,Indore,Maa Ki Rasoi,Vijay Nagar,Chinese,Schezwan Rice,128.5,4.4,22,1000153,12.972363,77.639906,10.45,Medium,26,45,71,71,0,On Time,19,Evening,1,Weekend,0.8500000000000001,Positive
Jammu and Kashmir,Srinagar,Cafe Parizaad,Rajbagh,Rolls,Special Single chicken roll,120.0,4.3,67,1000154,13.096413,77.527964,13.97,Jam,40,108,148,99,49,Heavily Delayed,15,Afternoon,0,Weekday,0.825,Positive
Rajasthan,Jaipur,Burger Farm,Jagatpura,Cheese Burst Burgers,Farm Spicy Paneer Cheese Burst,243.1,4.6,9,1000155,12.910514,77.507072,5.49,High,21,34,55,47,8,Slightly Delayed,10,Morning,0,Weekend,0.8999999999999999,Positive
Rajasthan,Jaipur,Cheesecake & Co.,Sindhi Camp,Cake,Gourmet Chocolate Truffle Cake,1100.0,3.3,1,1000156,13.018034,77.587641,13.26,Jam,31,111,142,87,55,Heavily Delayed,22,Night,0,Weekday,0.575,Neutral
Karnataka,Bengaluru,Sweet Truth - Cake And Desserts,Whitefield,Recommended,Blueberry Cheesecake,199.0,4.7,34,1000157,13.040405,77.634079,6.53,High,14,41,55,44,11,Slightly Delayed,23,Night,0,Weekday,0.925,Positive
Chhattisgarh,Raipur,Rasoi Thali,Civil Lines,Dal,Plain Dal,90.0,3.8,43,1000158,12.909409,77.524567,5.32,Medium,29,21,50,54,-4,On Time,16,Evening,0,Weekday,0.7,Neutral
Manipur,Imphal,Domino'S Pizza,Keishamthong,Big Big Pizza,Big Big 6in1 Pizza - Veg,1669.0,4.3,6,1000159,13.032054,77.540207,8.12,High,25,48,73,61,12,Slightly Delayed,13,Afternoon,1,Weekday,0.825,Positive
Manipur,Imphal,Pizza Hut,Keishamthong,Recommended,Chilli Paneer Sizzle,189.0,4.6,36,1000160,12.941946,77.634068,7.19,Medium,19,32,51,52,-1,On Time,11,Afternoon,0,Weekday,0.8999999999999999,Positive
Jharkhand,Ranchi,Kaveri'S,Ashok Nagar,Condiments,Fried Papad,46.0,5.0,5,1000161,13.008076,77.733722,13.79,Medium,21,57,78,79,-1,On Time,11,Afternoon,0,Weekend,1.0,Positive
Telangana,Hyderabad,Sri Varalakshmi Pure Veg Tiffins,Kondapur,Recommended,Ghee Karampodi Ragi Idli(3 Pieces),109.0,4.5,1,1000162,13.008382,77.652423,7.56,High,15,44,59,49,10,Slightly Delayed,15,Afternoon,0,Weekday,0.875,Positive
Jharkhand,Ranchi,Jashn The Restaurant,Purulia Road,Chinese Fried Rice,Chicken Mix Rice,269.0,4.4,93,1000163,12.983944,77.684871,4.88,High,32,28,60,56,4,On Time,11,Afternoon,0,Weekend,0.8500000000000001,Positive
Uttar Pradesh,Lucknow,Madhurima Veg,Ashiyana,Chinese Combo,Paneer Chilli & Veg. Noodles,345.0,4.3,45,1000164,12.872572,77.560043,12.8,Jam,34,100,134,88,46,Heavily Delayed,9,Morning,0,Weekday,0.825,Positive
Gujarat,Ahmedabad,Jayhind Sweets,Ghatlodia,Namkeen,Bhelpuri,105.0,5.0,6,1000165,13.058826,77.531676,14.98,High,30,82,112,93,19,Heavily Delayed,10,Morning,0,Weekend,1.0,Positive
Jammu and Kashmir,Srinagar,The Garage Cafe,Food Souk,Momos,Chicken Fried Momos [10 Pieces],229.0,4.2,487,1000166,12.930195,77.58628,10.07,High,28,55,83,72,11,Slightly Delayed,22,Night,0,Weekend,0.8,Positive
Bihar,Patna,Bikaner Elite,Sri Krishna Puri,Teej Special,Rasgulla Box,94.5,4.7,207,1000167,12.89663,77.69214,4.51,Low,43,17,60,65,-5,On Time,23,Night,0,Weekday,0.925,Positive
Delhi,New Delhi,Thalairaj Biryani,Indirapuram,Recommended,Pepper Mushroom Biryani (650 gms),349.0,4.6,220,1000168,12.860194,77.58689,4.34,Low,29,16,45,50,-5,On Time,22,Night,0,Weekday,0.8999999999999999,Positive
Delhi,New Delhi,Domino'S Pizza,Pratap Vihar,Pizza Mania,Classic,79.0,4.3,66,1000169,12.997723,77.704018,1.81,High,12,14,26,24,2,On Time,18,Evening,0,Weekday,0.825,Positive
Telangana,Hyderabad,Mcdonald'S,Pocharam,Coffee & Beverages (Hot And Cold),Iced Coffee with Hazelnut,226.0,4.5,1,1000170,13.019391,77.746632,2.08,Medium,16,10,26,29,-3,On Time,17,Evening,0,Weekend,0.875,Positive
Karnataka,Bengaluru,Itc Master Chef Creations,Doddathogur Village,All Day Snacks,Savory Samosa Dahi Chaat,297.0,3.9,41,1000171,12.854147,77.471608,13.81,Jam,12,110,122,70,52,Heavily Delayed,23,Night,0,Weekday,0.725,Neutral
Karnataka,Bengaluru,Pizza Hut,Banashankari,Non Veg Pizza,Chicken Sausage,259.0,5.0,8,1000172,12.978023,77.463623,2.35,Medium,13,18,31,27,4,On Time,17,Evening,0,Weekday,1.0,Positive
Telangana,Hyderabad,"Faasos - Wraps, Rolls & Shawarma",Narsingi,Pocket Friendly Rolls,Chipotle Potato Shots Wrap,169.0,4.4,6,1000173,12.906624,77.494877,7.78,High,43,44,87,78,9,Slightly Delayed,14,Afternoon,1,Weekend,0.8500000000000001,Positive
Tripura,Agartala,Frespresso,Ganaraj Chowmuhani,Sea Food Apprtizer,Fish And Chips    ,450.0,4.9,16,1000174,13.011293,77.565311,10.77,High,15,60,75,62,13,Slightly Delayed,9,Morning,0,Weekday,0.9750000000000001,Positive
Karnataka,Bengaluru,Big Bowl,Dasarahalli,Recommended,Chicken Fried Rice Bowl,309.0,4.2,133,1000175,12.893592,77.489313,12.9,High,30,71,101,85,16,Heavily Delayed,21,Night,1,Weekend,0.8,Positive
Tripura,Agartala,Momo Magic Cafe,Gurkhabasti,Pasta,Mixed Sauce Chicken Macaroni Pasta,280.0,4.1,347,1000176,13.022734,77.711199,3.4,Low,13,13,26,31,-5,On Time,9,Morning,0,Weekday,0.7749999999999999,Positive
Tripura,Agartala,Matkawala,Lal Bahadur,Thukpa,Chicken Thukpa  ,299.0,3.4,6,1000177,12.946684,77.456944,7.13,High,21,49,70,53,17,Heavily Delayed,21,Night,1,Weekday,0.6,Neutral
Goa,Panaji,Pizza Hut,Swatantra Path,Recommended,Classic Herbed Chicken & Capsicum,179.0,4.1,27,1000178,13.084182,77.544738,4.52,Low,30,19,49,52,-3,On Time,18,Evening,0,Weekday,0.7749999999999999,Positive
Karnataka,Bengaluru,Kfc,Rajarajeshwari Nagar,Rolls,Indian Tandoori Chicken Roll,139.0,3.6,17,1000179,12.88438,77.505408,4.58,High,43,31,74,65,9,Slightly Delayed,9,Morning,0,Weekday,0.65,Neutral
Haryana,Gurgaon,Olio - The Wood Fired Pizzeria,Lado Sarai,House Special Garlic Breads!,Italian Cheese Garlic Bread,249.0,4.5,12,1000180,12.935267,77.729462,5.25,High,16,32,48,41,7,Slightly Delayed,18,Evening,0,Weekday,0.875,Positive
Haryana,Gurgaon,Harish Bakery,Old Railway Road,"Namkeens, Wafers  & Chips",Hukum Mixture - 400 GM,93.75,4.3,1,1000181,12.878368,77.650844,9.22,High,30,54,84,70,14,Slightly Delayed,16,Evening,0,Weekend,0.825,Positive
Gujarat,Ahmedabad,Burger King,Palladium FC,Exclusive Deals (Save Upto 40%),"BK Chicken+Crunchy Chicken Nuggets(4pcs),",258.0,4.3,1,1000182,13.081173,77.723609,1.23,Low,34,10,44,43,1,On Time,19,Evening,1,Weekday,0.825,Positive
Manipur,Imphal,Tasty Tastes - Nagmapal,Nagamapal,Rolls,Paneer Roll (1 Pc),130.0,4.9,30,1000183,13.069335,77.741699,6.72,Medium,15,30,45,46,-1,On Time,12,Afternoon,0,Weekday,0.9750000000000001,Positive
Chhattisgarh,Raipur,Ramdev'S Khana Khazana,Shankar Nagar,Dal,Dal Makhani,210.0,4.3,3,1000184,12.914485,77.599129,3.62,Low,36,13,49,55,-6,Early,23,Night,0,Weekend,0.825,Positive
Tripura,Agartala,Shyamasree Restaurant,Battala,Main Course,Special Chicken Kosha,180.0,3.7,111,1000185,13.014996,77.520296,14.54,Jam,44,114,158,105,53,Heavily Delayed,18,Evening,0,Weekend,0.675,Neutral
Kerala,Kochi,Subway,MG Road,Recommended,Paneer Tikka Sandwich,287.38,4.5,28,1000186,13.054306,77.508119,9.16,High,10,53,63,50,13,Slightly Delayed,18,Evening,0,Weekday,0.875,Positive
Rajasthan,Jaipur,Sodhani Sweets And Namkeen,Gopalpura,Bengali Sweets,Pan Gilory,22.85,4.6,29,1000187,12.9888,77.516876,13.15,Medium,26,56,82,82,0,On Time,21,Night,1,Weekday,0.8999999999999999,Positive
Tamil Nadu,Chennai,Burger King,Chrompet,Recommended,Classic Family Feast for 4 - Veg,938.62,3.4,7,1000188,12.982413,77.662578,3.74,Low,14,31,45,33,12,Slightly Delayed,12,Afternoon,0,Weekday,0.6,Neutral
Maharashtra,Mumbai,Hola Pasta - Fresh Gourmet Pasta,Nerul,Veg Starters,Smoked Aloo Skewers [10 Pcs],199.0,4.2,1,1000189,12.910463,77.462134,12.34,Jam,41,100,141,94,47,Heavily Delayed,8,Morning,0,Weekend,0.8,Positive
Jammu and Kashmir,Srinagar,Krav,Natipora,Sides,Addon Fries And Soft Drink,115.0,4.9,20,1000190,12.873276,77.465408,6.81,Medium,27,30,57,58,-1,On Time,8,Morning,0,Weekday,0.9750000000000001,Positive
Chhattisgarh,Raipur,Theobroma,Shankar Nagar,Cupcakes,Red Velvet Cupcake [1 Piece],95.0,4.4,10,1000191,13.074304,77.632443,3.49,High,44,20,64,62,2,On Time,19,Evening,1,Weekday,0.8500000000000001,Positive
Karnataka,Bengaluru,Mcdonald'S,Peenya,Fries & Sides,Mustard Sauce,19.04,4.5,35,1000192,13.075105,77.642617,11.66,High,19,64,83,69,14,Slightly Delayed,9,Morning,0,Weekend,0.875,Positive
Karnataka,Bengaluru,Mcdonald'S,Yelahanka,Mcsaver Combos (2 Pc Meals),2 Cappuccino,233.33,4.2,1,1000193,13.008275,77.649579,11.67,Jam,11,92,103,61,42,Heavily Delayed,15,Afternoon,0,Weekday,0.8,Positive
Jammu and Kashmir,Srinagar,Cafe Ertugrul,Rambagh,Combo'S ( Save Extra Upto 30% Off),Chicken Kanti (b/l) Half +  Plain Naan 2 No + Salad + Water,430.0,3.7,4,1000194,12.934757,77.561564,14.94,High,27,79,106,90,16,Heavily Delayed,19,Evening,1,Weekend,0.675,Neutral
Karnataka,Bengaluru,Nandhana Palace,Mathikere- BELÂroad,Accompaniments,Salan,25.0,4.9,60,1000195,12.937302,77.691783,11.93,High,44,65,109,95,14,Slightly Delayed,22,Night,0,Weekend,0.9750000000000001,Positive
Karnataka,Bengaluru,Mcdonald'S,Bannerghatta Road,Burger Combos ( 3 Pc Meals ),McSpicy Chicken Burger Combo,364.0,4.9,9,1000196,13.031489,77.610087,3.03,Low,31,10,41,47,-6,Early,21,Night,1,Weekday,0.9750000000000001,Positive
Karnataka,Bengaluru,Chaayos Chai+Snacks=Relax,Electronic City,Recommended,Chilli Cheese Toast,209.0,4.6,47,1000197,13.074278,77.48164,5.52,High,14,33,47,40,7,Slightly Delayed,23,Night,0,Weekday,0.8999999999999999,Positive
Jharkhand,Ranchi,Kuppuswami,Kanke Road,Recommended,Green Peas Masala,170.0,4.9,10,1000198,13.071772,77.68913,7.32,Medium,33,31,64,66,-2,On Time,12,Afternoon,0,Weekend,0.9750000000000001,Positive
Odisha,Bhubaneswar,Cafe Coffee Day,Patrapada,Croissants Reloaded,Croissant,189.0,3.9,3,1000199,13.044969,77.73592,2.77,Medium,41,15,56,56,0,On Time,23,Night,0,Weekend,0.725,Neutral
Rajasthan,Jaipur,Domino'S Pizza,Jagatpura,5 Course Pizza Feast,5 Course Meal: Chicken Sausage Pizza,251.05,4.7,2,1000200,13.010508,77.468011,12.03,High,43,64,107,94,13,Slightly Delayed,13,Afternoon,1,Weekday,0.925,Positive
Karnataka,Bengaluru,Lunchbox - Meals And Thalis,Sarjapur Road Yamare,Recommended,Smoked Butter Chicken & Rice LunchBox,309.0,4.5,8,1000201,12.871035,77.567405,8.37,Jam,20,70,90,57,33,Heavily Delayed,13,Afternoon,1,Weekday,0.875,Positive
Uttar Pradesh,Lucknow,Mcdonald'S,Sushant Golf City,Deal Of The Day,McAloo Tikki Meal,234.0,4.4,47,1000202,12.890407,77.596255,14.22,Medium,19,59,78,79,-1,On Time,14,Afternoon,1,Weekday,0.8500000000000001,Positive
Mizoram,Aizawl,Pizza Hut,Aizwal,Veg Pizza,Corn & Cheese,219.0,3.7,15,1000203,13.074639,77.493941,9.25,Medium,32,39,71,73,-2,On Time,17,Evening,0,Weekday,0.675,Neutral
Tamil Nadu,Chennai,Ratna Cafe (Estd.1948),Kilpauk,Fresh Juices,Fresh Lime Juice,70.0,4.1,197,1000204,13.001607,77.710313,8.32,Medium,19,41,60,56,4,On Time,9,Morning,0,Weekday,0.7749999999999999,Positive
Meghalaya,Shillong,Long Jhon Silver'S,Polo,Soup,Chicken Hot And Sour Soup,130.0,3.9,32,1000205,12.852299,77.535245,2.0,Medium,16,16,32,28,4,On Time,13,Afternoon,1,Weekday,0.725,Neutral
Madhya Pradesh,Indore,Mccafe By Mcdonald'S,Bhawarkuan Main Road,Coffee & Beverages (Hot And Cold),Hot Chocolate (S),205.0,4.6,2,1000206,12.875368,77.684903,3.09,Low,22,15,37,39,-2,On Time,23,Night,0,Weekend,0.8999999999999999,Positive
Goa,Panaji,Mcdonald'S,Calangute,Mcsaver Combos (2 Pc Meals),McSaver Korean Chicken Surprise Burger,194.43,3.8,11,1000207,13.015875,77.651298,12.89,Medium,32,56,88,87,1,On Time,22,Night,0,Weekday,0.7,Neutral
Karnataka,Bengaluru,Nic Ice Creams,KENGERI UPANAGAR,100 Ml Ice Creams,Dryfruit Overload Ice Cream 100ml,88.98,4.7,17,1000208,12.851265,77.629414,14.87,Jam,20,114,134,82,52,Heavily Delayed,12,Afternoon,0,Weekday,0.925,Positive
West Bengal,Kolkata,Box8 - Desi Meals,Jessore Rd,Paratha Rolls,Cheese Burst Paneer Roll,249.0,4.6,1,1000209,12.890202,77.507643,6.81,Medium,44,33,77,75,2,On Time,14,Afternoon,1,Weekend,0.8999999999999999,Positive
Delhi,New Delhi,Bakingo,Dwarka,Recommended,Set of 2 Birthday Poster Chocolate Jar Cakes,329.0,3.5,26,1000210,12.987183,77.516211,12.34,High,17,68,85,70,15,Slightly Delayed,10,Morning,0,Weekday,0.625,Neutral
Karnataka,Bengaluru,Great Indian Khichdi By Eatfit,Yelahanka,Ala Carte,Bhindi Chana (360g),253.0,4.2,2,1000211,13.022974,77.464205,9.79,Medium,32,41,73,75,-2,On Time,11,Afternoon,0,Weekday,0.8,Positive
Kerala,Kochi,Samridhi At Kochi,Kaloor,Breakfast,"White Rice Puttu [Small, 2 Pieces]",40.0,4.6,7,1000212,13.01299,77.522214,14.43,High,16,78,94,77,17,Heavily Delayed,20,Night,1,Weekend,0.8999999999999999,Positive
Assam,Guwahati,Baskin Robbins - Ice Cream Desserts,Six Mile,Fruit Ice Creams,Very Berry Strawberry Ice Cream,75.0,4.2,33,1000213,12.906067,77.553633,4.33,Low,19,17,36,40,-4,On Time,20,Night,1,Weekday,0.8,Positive
Jharkhand,Ranchi,Gangaur Govindam,Khelgaon,Rice/Pulao/Biryani,Veg Dum Biryani,280.0,4.6,6,1000214,13.028045,77.699944,8.63,High,21,45,66,59,7,Slightly Delayed,11,Afternoon,0,Weekday,0.8999999999999999,Positive
Karnataka,Bengaluru,Lunchbox  Meals And Thalis,Rr Nagar,Paratha Lunchbox,Mutton Bhuna with Laccha Paratha,449.0,4.6,2,1000215,12.909312,77.559918,6.72,Medium,40,33,73,71,2,On Time,20,Night,1,Weekday,0.8999999999999999,Positive
Madhya Pradesh,Indore,Jain Mithai Bhandar (Jmb),Old Palasia,Breakfast Bestsellers,Poha                                     ,25.0,4.5,0,1000216,12.93135,77.676387,8.58,High,20,45,65,58,7,Slightly Delayed,18,Evening,0,Weekday,0.875,Positive
Madhya Pradesh,Indore,The Good Bowl,Sudama Nagar,Recommended,Mughlai Grilled Chicken Rice Bowl with Omelette,359.0,4.3,75,1000217,13.036623,77.581833,4.76,Low,35,23,58,58,0,On Time,19,Evening,1,Weekday,0.825,Positive
Bihar,Patna,Awadhi,Boring Patliputra Road,South Indian,Masala Dosa [Butter],185.0,4.2,500,1000218,13.012408,77.68546,7.97,High,14,45,59,50,9,Slightly Delayed,23,Night,0,Weekday,0.8,Positive
West Bengal,Kolkata,Kfc,Newtown,B2G1 Special Offer,Korean Chicken Tangy Roll - DOTD,139.0,2.7,3,1000219,13.062306,77.742881,9.75,Jam,16,86,102,59,43,Heavily Delayed,12,Afternoon,0,Weekday,0.42500000000000004,Negative
Gujarat,Ahmedabad,Saurashtra Chawana & Sweets,"Sachin Tower, Prahladnagar",Namkeen @ Rs. 99,Methi Para (200 gm),99.0,4.9,17,1000220,13.014403,77.521952,2.14,Low,16,12,28,29,-1,On Time,9,Morning,0,Weekday,0.9750000000000001,Positive
Jammu and Kashmir,Srinagar,Punjabi Darbaar Dhaba,Boulevard,Tandoor,Garlic Naan,120.0,3.8,4,1000221,12.992077,77.708702,11.4,Medium,15,47,62,64,-2,On Time,19,Evening,1,Weekend,0.7,Neutral
Delhi,New Delhi,Oven Story Pizza,Dwarka,2X Cheese Pizza,Double Cheese Tandoori Paneer Tikka Medium Pizza,539.0,3.3,4,1000222,12.873419,77.636547,10.89,Medium,30,65,95,77,18,Heavily Delayed,20,Night,1,Weekend,0.575,Neutral
Rajasthan,Jaipur,Sodhani Sweets,Pink City,Sweets,Doodh Laddu,119.04,4.0,0,1000223,12.941929,77.695188,13.33,Jam,10,104,114,66,48,Heavily Delayed,10,Morning,0,Weekday,0.75,Positive
Assam,Guwahati,Y Not Food Express,Jalukbari,South Indian,Butter Masala Dosa (1 Pc),160.0,5.0,49,1000224,12.916301,77.645476,6.96,Medium,11,30,41,43,-2,On Time,9,Morning,0,Weekday,1.0,Positive
Karnataka,Bengaluru,Edesia By Freshmenu,YELAHANKA,Sandwiches,Cheesy Corn Mushroom Sandwich,249.0,3.7,2,1000225,12.910997,77.577185,1.86,High,12,16,28,24,4,On Time,15,Afternoon,0,Weekday,0.675,Neutral
Himachal Pradesh,Shimla,Beekays,Mall Road,Burgers,Chicken Tikka Burger,175.0,5.0,11,1000226,13.093253,77.518422,7.46,Medium,43,31,74,77,-3,On Time,18,Evening,0,Weekday,1.0,Positive
Uttar Pradesh,Lucknow,Mcdonald'S,Vrindavan Yojna,The Ranveer Singh Meal,  EVM  McVeggie Xplode,290.0,4.3,2,1000227,12.948274,77.471011,2.93,Low,23,14,37,39,-2,On Time,23,Night,0,Weekday,0.825,Positive
Delhi,New Delhi,Prime Bakery & Sweets,Sector 76,Snacks,Onion Kachori 2pc,72.0,4.7,182,1000228,13.073012,77.610656,10.06,High,34,52,86,78,8,Slightly Delayed,20,Night,1,Weekday,0.925,Positive
Kerala,Kochi,The Persian Table,Kolenchery,Al Faham,Persian Table Special Kanthari Half,370.0,4.8,3,1000229,13.007785,77.747098,1.66,Low,25,10,35,36,-1,On Time,9,Morning,0,Weekday,0.95,Positive
Tamil Nadu,Chennai,Salem Rr Biriyani Unavagam,Chromepet,Salem Rr Non Veg Starters,Prawn 65,308.0,3.0,31,1000230,13.048703,77.671413,6.24,High,24,44,68,53,15,Slightly Delayed,11,Afternoon,0,Weekday,0.5,Neutral
Goa,Panaji,Takeout - Asian Goodness,Anjuna,Mains,Hongkong Style Chicken ,525.0,4.8,30,1000231,12.975659,77.548204,2.16,Medium,33,17,50,46,4,On Time,9,Morning,0,Weekday,0.95,Positive
West Bengal,Kolkata,Wow! China,Nemai Bhawan,Bowls (Save Upto 40%),Chicken Fried Rice With Chilli Chicken,349.0,4.1,54,1000232,12.994226,77.698161,1.05,Medium,17,10,27,26,1,On Time,15,Afternoon,0,Weekday,0.7749999999999999,Positive
Assam,Guwahati,Confucius (Silpukhuri),Silpukhuri,Mixed Soups,Mixed Talumein Soup,185.0,4.4,3,1000233,12.973129,77.680695,14.45,High,11,78,89,72,17,Heavily Delayed,22,Night,0,Weekday,0.8500000000000001,Positive
Odisha,Bhubaneswar,Swastik Mom'S Kitchen,Link Road,Curry,Paneer hyderabadi,212.0,4.6,14,1000234,12.898811,77.534491,14.95,Jam,35,116,151,98,53,Heavily Delayed,21,Night,1,Weekday,0.8999999999999999,Positive
Uttar Pradesh,Lucknow,Mcdonald'S,Phoenix Mall,Sides,Medium-Fries,118.0,4.6,58,1000235,13.030613,77.454292,8.78,High,27,53,80,66,14,Slightly Delayed,22,Night,0,Weekday,0.8999999999999999,Positive
Telangana,Hyderabad,Chinese Wok,M-Qube Mall,Extra Dip & Crispy Noodles,Extra Mayo Dip,20.0,4.3,1,1000236,12.920193,77.485449,4.35,Low,27,16,43,48,-5,On Time,21,Night,1,Weekday,0.825,Positive
Karnataka,Bengaluru,Homely,Whitefield,Recommended,Laccha Paratha (2 pcs),89.0,4.3,668,1000237,12.856079,77.713192,13.76,High,28,75,103,86,17,Heavily Delayed,23,Night,0,Weekend,0.825,Positive
Goa,Panaji,Domino'S Pizza,Mazal Waddo,Recommended,Chicken Keema & Onion with Desi Makhani Sauce,159.0,4.7,28,1000238,13.011368,77.700969,13.92,Medium,42,58,100,101,-1,On Time,15,Afternoon,0,Weekday,0.925,Positive
Maharashtra,Mumbai,Kfc,Ulwe,Burgers,Mixed Chicken Zinger Burger Doubles,368.57,3.8,41,1000239,12.894278,77.538563,12.96,Medium,41,55,96,96,0,On Time,10,Morning,0,Weekday,0.7,Neutral
Bihar,Patna,Bikaner Elite,Sri Krishna Puri,Teej Special,Kesariya Nariyal Burfi,187.0,4.7,6,1000240,13.085115,77.535559,8.62,High,34,48,82,72,10,Slightly Delayed,13,Afternoon,1,Weekday,0.925,Positive
Kerala,Kochi,Kfc,Kalavamcodam,Recommended,Double Chicken Roll,169.0,3.8,13,1000241,13.088482,77.687859,2.05,Medium,36,15,51,48,3,On Time,15,Afternoon,0,Weekday,0.7,Neutral
Nagaland,Kohima,Domino'S Pizza,High School Colony,5 Course Pizza Feast,5 Course Meal: Pepper BBQ Chicken Pizza,271.05,4.8,1,1000242,13.078716,77.731321,2.24,Medium,30,16,46,43,3,On Time,22,Night,0,Weekday,0.95,Positive
Telangana,Hyderabad,Lunchbox - Meals And Thalis,Manikonda,Rice Lunchbox,Mughlai Egg Curry & Rice Lunchbox,229.0,4.0,141,1000243,12.94254,77.683741,13.55,Jam,32,103,135,89,46,Heavily Delayed,8,Morning,0,Weekday,0.75,Positive
Delhi,New Delhi,Nic Ice Creams,Dwarka,500 Ml Ice Creams,Belgian Chocolate Ice Cream 500ml,402.54,4.8,53,1000244,12.853864,77.631674,13.26,High,20,74,94,76,18,Heavily Delayed,15,Afternoon,0,Weekday,0.95,Positive
Manipur,Imphal,Pizza Hut,Chingamikha,"Buy 1 Pizza Get 2 Sides, 1 Pepsi Free",Buy 1 Get 3 - Medium Veg,489.0,5.0,1,1000245,13.08208,77.522801,7.08,Medium,30,35,65,62,3,On Time,23,Night,0,Weekday,1.0,Positive
Odisha,Bhubaneswar,Arabikaas Arabian Restaurant,Patia,The Other Side (Appetizers),Mushroom Manchurian,339.0,3.6,4,1000246,12.957046,77.607724,5.59,High,40,34,74,66,8,Slightly Delayed,12,Afternoon,0,Weekday,0.65,Neutral
Delhi,New Delhi,Hira Sweets And Confectionary Pvt. Ltd.,Sector 51,Cookies & Namkeen,Besan Papdi (Pkt),53.57,4.3,3,1000247,13.091664,77.520054,10.02,Medium,44,46,90,88,2,On Time,13,Afternoon,1,Weekday,0.825,Positive
Uttar Pradesh,Lucknow,Big Bowl,Crown Mall,Desserts,Salted Caramel Choco Mousse,59.0,4.3,3,1000248,13.090905,77.692403,12.3,Jam,44,94,138,96,42,Heavily Delayed,8,Morning,0,Weekend,0.825,Positive
Karnataka,Bengaluru,Mcdonald'S,Yelahanka,Mcsaver Combos (2 Pc Meals),McVeggie Burger + Fries (L),250.47,4.3,11,1000249,13.063252,77.566088,11.24,High,25,63,88,73,15,Slightly Delayed,20,Night,1,Weekday,0.825,Positive
Karnataka,Bengaluru,Itc Sunfeast Baked Creations,Yelahanka,Croissants & Viennoiserie,Classic French Butter Croissant (2 Pc),297.0,4.9,113,1000250,12.923612,77.700109,9.62,High,40,56,96,82,14,Slightly Delayed,22,Night,0,Weekday,0.9750000000000001,Positive
Delhi,New Delhi,Kfc,Dwarka,All Day Lunch Special Meal Box,Rice Box Meal,399.0,4.6,20,1000251,12.946274,77.564483,4.24,High,22,25,47,43,4,On Time,16,Evening,0,Weekday,0.8999999999999999,Positive
Gujarat,Ahmedabad,Burger Farm,GOTA,Recommended,Farm Cheese Burst,254.0,4.1,7,1000252,13.062784,77.697245,4.68,Low,28,16,44,51,-7,Early,17,Evening,0,Weekday,0.7749999999999999,Positive
Rajasthan,Jaipur,Cheesecake & Co.,Mansarovar,Jar,Brownie Baked Cheesecake Jar,280.0,4.9,77,1000253,12.929231,77.549995,11.14,High,19,64,83,67,16,Heavily Delayed,9,Morning,0,Weekday,0.9750000000000001,Positive
Kerala,Kochi,Kfc,Ernakulam,Recommended,Classic Chicken Roll,139.0,4.4,68,1000254,12.892373,77.58204,12.24,High,14,66,80,66,14,Slightly Delayed,11,Afternoon,0,Weekend,0.8500000000000001,Positive
Rajasthan,Jaipur,Bombay Mishthan Bhandar (Bmb) - Durapura,Durgapura,Indian Snacks,Pav Bhaji,155.0,4.2,33,1000255,12.9892,77.634647,2.63,Low,13,11,24,28,-4,On Time,17,Evening,0,Weekend,0.8,Positive
Odisha,Bhubaneswar,Jugaad Jn,Patia,Fries & Sandwich,Cheese Potato Sandwitch,159.0,4.1,74,1000256,13.084039,77.471086,3.62,Medium,21,15,36,40,-4,On Time,13,Afternoon,1,Weekday,0.7749999999999999,Positive
Gujarat,Ahmedabad,1944 The Hocco Kitchen,Bopal,Special Combo,Dal Makhani + Lachha Paratha,299.0,4.6,39,1000257,13.024007,77.734462,10.53,High,35,57,92,81,11,Slightly Delayed,17,Evening,0,Weekday,0.8999999999999999,Positive
Tamil Nadu,Chennai,Dindigul Thalappakatti - Since 1957,Poonamallee,Breads & Parottas,Egg Kothu Parotta,259.0,4.8,4,1000258,12.992515,77.622082,6.45,Medium,24,28,52,54,-2,On Time,13,Afternoon,1,Weekday,0.95,Positive
Delhi,New Delhi,Mcdonald'S,Greenfields_FBD,Extra Value Meal Large,Large EVM McVeggie®,284.0,5.0,3,1000259,12.874294,77.602346,8.89,High,41,46,87,80,7,Slightly Delayed,16,Evening,0,Weekday,1.0,Positive
Manipur,Imphal,Frys,Majorkhul,Wraps & Rolls,chicken Quesadillas ,208.0,4.5,6,1000260,13.003752,77.701818,9.61,Medium,38,41,79,80,-1,On Time,23,Night,0,Weekday,0.875,Positive
Karnataka,Bengaluru,Burger King,Yelahanka,Exclusive Deals (Save Upto 40%),Crispy Chicken + Crispy Chicken.,198.0,4.2,329,1000261,13.097513,77.709729,11.87,High,39,67,106,90,16,Heavily Delayed,12,Afternoon,0,Weekday,0.8,Positive
Punjab,Chandigarh,Bakingo,Sector 16,Recommended,Blueberry Bake Cheesecake Slice,199.0,4.7,360,1000262,12.885021,77.606678,12.28,High,38,68,106,90,16,Heavily Delayed,14,Afternoon,1,Weekday,0.925,Positive
Bihar,Patna,Pizza Hut,Patliputra Colony,Recommended,Tandoori Paneer,319.0,4.3,148,1000263,12.979582,77.728179,4.92,Low,36,16,52,60,-8,Early,9,Morning,0,Weekend,0.825,Positive
Tripura,Agartala,Tihar Flavours Of Jail,Milan Chakra,Indian Non Veg Gravy,Tawa Chicken Gravy,270.0,4.2,15,1000264,13.069343,77.469421,8.58,Medium,24,39,63,62,1,On Time,9,Morning,0,Weekend,0.8,Positive
Tamil Nadu,Chennai,Mcdonald'S,Nehru Nagar,Group Sharing Combos,Burger Combo for 2: McSpicy Paneer + McAloo Tikki with Coke,415.23,4.1,2,1000265,13.035192,77.483968,2.73,Low,37,14,51,52,-1,On Time,10,Morning,0,Weekend,0.7749999999999999,Positive
Madhya Pradesh,Indore,Burger King,Rajendra Nagar,Exclusive Deals (Save Upto 40%),Crispy Chicken + Crispy Chicken.,198.0,4.3,38,1000266,13.024254,77.629036,12.79,Jam,25,101,126,79,47,Heavily Delayed,8,Morning,0,Weekday,0.825,Positive
Mizoram,Aizawl,Pizza Hut,Aizawl,Appetizer,BBQ Baked Chicken Wings 6pc,269.0,4.9,4,1000267,13.025621,77.55622,12.84,Medium,19,55,74,74,0,On Time,9,Morning,0,Weekday,0.9750000000000001,Positive
Maharashtra,Mumbai,Mcdonald'S,Ulwe,Fries & Sides,Barbeque Sauce,19.04,4.8,9,1000268,12.939873,77.589268,5.19,Low,43,18,61,68,-7,Early,14,Afternoon,1,Weekend,0.95,Positive
Kerala,Kochi,The Coconut,Kolenchery,Vegetarian,Chilly Gobi,200.0,4.7,4,1000269,12.923398,77.548424,3.25,Low,21,15,36,38,-2,On Time,21,Night,1,Weekday,0.925,Positive
Tamil Nadu,Chennai,Mcdonald'S,Anna Nagar,Group Sharing Combos,Mc Crispy Chicken Burger + McChicken Burger + Fries (M),430.47,4.9,5,1000270,13.05234,77.571418,1.98,Low,34,12,46,46,0,On Time,13,Afternoon,1,Weekday,0.9750000000000001,Positive
Odisha,Bhubaneswar,Pizza Hut,Baxi Bazar,Recommended,Bold BBQ Veggie Thin n Crispy,749.0,3.7,3,1000271,13.052528,77.696794,9.05,High,17,51,68,57,11,Slightly Delayed,15,Afternoon,0,Weekday,0.675,Neutral
Karnataka,Bengaluru,Nandhana Palace,Mathikere- BELÂroad,Mocktails & Juices,Watermelon Fizz,130.0,4.4,6,1000272,13.066768,77.628043,2.28,Low,41,15,56,54,2,On Time,13,Afternoon,1,Weekend,0.8500000000000001,Positive
Karnataka,Bengaluru,Srivari Bhimmas,Yelahanka,Dosa Specialities,Bhimas Special Dosa,190.0,4.9,7,1000273,13.07831,77.749203,10.53,High,33,58,91,79,12,Slightly Delayed,9,Morning,0,Weekday,0.9750000000000001,Positive
Punjab,Chandigarh,Kfc,Sector 9,Recommended,Korean & Thai Roll Chicken Meal,569.0,4.0,1,1000274,12.977836,77.686064,10.49,High,14,55,69,59,10,Slightly Delayed,11,Afternoon,0,Weekday,0.75,Positive
Meghalaya,Shillong,Kim Pou Restaurent,Police Bazar,Main Course,Manchurian Prawn,580.0,5.0,8,1000275,12.975379,77.5321,9.6,Medium,28,45,73,70,3,On Time,18,Evening,0,Weekday,1.0,Positive
Karnataka,Bengaluru,Mcdonald'S,Sarjapur-Marathahalli Road,Burgers & Wraps,Mexican Corn & Cheese Burger,179.04,4.4,1,1000276,13.049574,77.529304,13.27,High,20,68,88,76,12,Slightly Delayed,12,Afternoon,0,Weekday,0.8500000000000001,Positive
West Bengal,Kolkata,Makhani Darbar,Rajarhat,Non Veg Gravies,Chicken Kheema,219.0,4.5,6,1000277,13.012491,77.550769,6.3,High,26,36,62,55,7,Slightly Delayed,16,Evening,0,Weekend,0.875,Positive
Maharashtra,Mumbai,Box8 - Desi Meals,Nerul,Desi Rice Bowls,Amritsari Chole Rice Bowl,219.0,4.7,173,1000278,13.025492,77.702978,13.63,Jam,37,105,142,95,47,Heavily Delayed,12,Afternoon,0,Weekday,0.925,Positive
Himachal Pradesh,Shimla,Grits N Gravy,Mall Road Solan,Combos,Pav Bhaji ( 3 Pcs ),119.0,2.8,5,1000279,13.048948,77.458186,1.52,Low,33,16,49,43,6,Slightly Delayed,9,Morning,0,Weekday,0.44999999999999996,Negative
Karnataka,Bengaluru,Itc Master Chef Creations,Doddathogur Village,Dum Biryanis (900 Grams),Subz Paneer Dum Biryani [900 grams],737.0,4.1,15,1000280,13.072501,77.519054,2.58,Low,21,12,33,36,-3,On Time,14,Afternoon,1,Weekday,0.7749999999999999,Positive
Maharashtra,Mumbai,Bikaner Sweets And Namkeen,Ghansoli,Chaat,Ragda Samosa,65.0,4.0,5,1000281,12.934499,77.721476,6.77,High,40,37,77,71,6,Slightly Delayed,19,Evening,1,Weekend,0.75,Positive
Punjab,Chandigarh,Amritsari Food Platter,Sector 125 Mohali,Indian Breads,Aloo Parantha (1 pc) With Curd,85.0,4.0,279,1000282,12.943896,77.641969,9.32,Low,16,35,51,57,-6,Early,10,Morning,0,Weekend,0.75,Positive
Uttar Pradesh,Lucknow,The Good Bowl,Kamta,Desserts,Gulab Jamun - Pack of 1,39.0,4.9,31,1000283,12.873495,77.518054,1.45,Low,12,10,22,22,0,On Time,8,Morning,0,Weekday,0.9750000000000001,Positive
Madhya Pradesh,Indore,Burger King,Indore,Exclusive Deals (Save Upto 40%),Crispy Veg Double Patty Burger+Fries(M),189.0,4.6,115,1000284,12.99457,77.515743,8.94,Medium,21,42,63,60,3,On Time,18,Evening,0,Weekday,0.8999999999999999,Positive
Goa,Panaji,Mcdonald'S,Calangute,Coffee & Beverages (Hot And Cold),Americano Coffee (R),205.0,4.7,10,1000285,12.858986,77.708785,5.3,High,35,29,64,60,4,On Time,18,Evening,0,Weekday,0.925,Positive
West Bengal,Kolkata,Box8 - Desi Meals,Jessore Rd,Main Course,Tawa Paratha Pack of 9,199.0,4.6,39,1000286,12.9664,77.718127,13.42,Medium,12,55,67,69,-2,On Time,10,Morning,0,Weekend,0.8999999999999999,Positive
Karnataka,Bengaluru,Kanti Sweets,Kengeri,Namkeen,Green Mixture,93.33,4.4,157,1000287,12.985661,77.526839,8.47,Medium,38,35,73,76,-3,On Time,20,Night,1,Weekday,0.8500000000000001,Positive
Uttar Pradesh,Lucknow,Kfc,Jankipuram,Recommended,Indian Tandoori Roll Chicken Meal,419.0,4.1,23,1000288,12.921635,77.576153,9.23,High,30,53,83,70,13,Slightly Delayed,10,Morning,0,Weekday,0.7749999999999999,Positive
Maharashtra,Mumbai,Shiv Sagar Veg Restaurant,Thane West,Soups,Sweet Corn Veg Soup,190.0,4.7,30,1000289,12.997708,77.700379,14.24,High,38,81,119,98,21,Heavily Delayed,13,Afternoon,1,Weekday,0.925,Positive
Odisha,Bhubaneswar,La Pino'Z Pizza,Mallick Complex,Dotd,Bbq Chicken Pizza Regular,129.0,4.4,82,1000290,12.857625,77.681302,11.7,High,38,64,102,88,14,Slightly Delayed,17,Evening,0,Weekday,0.8500000000000001,Positive
Manipur,Imphal,New Blue Moon,Dharmasala,Recommended,Paneer Butter Masala,391.0,4.3,56,1000291,12.859337,77.694175,7.14,High,35,36,71,67,4,On Time,22,Night,0,Weekend,0.825,Positive
Telangana,Hyderabad,Lunchbox - Meals And Thalis,Boduppal,Kulcha Lunchbox,Paneer Tikka Masala Kulcha Lunchbox,299.0,4.5,3,1000292,13.05565,77.605519,7.68,Medium,25,35,60,59,1,On Time,21,Night,1,Weekend,0.875,Positive
Odisha,Bhubaneswar,Mughlai Restaurant,College Square,Breads,Paneer Kulcha,99.0,4.2,45,1000293,12.940048,77.723465,10.07,Medium,20,45,65,64,1,On Time,17,Evening,0,Weekend,0.8,Positive
Haryana,Gurgaon,Mcdonald'S,Palam Vihar,Sides,Chicken McNuggets® 9pc,209.0,4.4,268,1000294,12.881765,77.547785,3.8,Low,35,14,49,54,-5,On Time,13,Afternoon,1,Weekend,0.8500000000000001,Positive
Delhi,New Delhi,Wakhra Swaad,Gaur City 2,Chinese - Rice And Noodles,Chicken Hakka Noodles,315.0,3.4,11,1000295,12.980561,77.497002,2.24,High,39,23,62,52,10,Slightly Delayed,17,Evening,0,Weekday,0.6,Neutral
Goa,Panaji,Wow! Momo,Mapusa,Fried Momo,Chicken Darjeeling Fried Momo,275.0,4.2,183,1000296,13.042498,77.66262,5.36,High,32,33,65,57,8,Slightly Delayed,13,Afternoon,1,Weekday,0.8,Positive
Kerala,Kochi,Zaatar Arabic Restaurant,Palarivattom,Soup,Seafood Soup,230.0,3.5,2,1000297,12.903955,77.611806,11.9,Jam,18,90,108,69,39,Heavily Delayed,22,Night,0,Weekday,0.625,Neutral
Maharashtra,Mumbai,Mcdonald'S,Nerul,Mcsaver Combos (2 Pc Meals),McAloo Tikki Burger + Veg Pizza McPuff + Fries (R),208.57,4.4,213,1000298,13.005723,77.706376,4.6,High,37,30,67,59,8,Slightly Delayed,19,Evening,1,Weekday,0.8500000000000001,Positive
West Bengal,Kolkata,Box8 - Desi Meals,Chowringhee Mansions,Recommended,Butter Chicken Thali Meal,319.0,4.3,43,1000299,12.871337,77.474348,2.83,Medium,31,18,49,47,2,On Time,19,Evening,1,Weekday,0.825,Positive
Madhya Pradesh,Indore,Jain Mithai Bhandar (Jmb),Old Palasia,Recommended,Kachori (Aloo) + Samosa,70.0,4.4,403,1000300,12.86292,77.703108,4.07,Medium,37,20,57,57,0,On Time,18,Evening,0,Weekday,0.8500000000000001,Positive
Manipur,Imphal,Pastas By Pizza Hut,Chingamikha,Appetizers,Masala Keema Garlic Bread,189.0,4.3,1,1000301,12.982839,77.537988,10.51,High,21,59,80,66,14,Slightly Delayed,21,Night,1,Weekend,0.825,Positive
Telangana,Hyderabad,Faasos' Signature Wraps & Rolls,shamshabad,Super Saver Combos,2 Signature Veg Wraps at 195 each,389.0,4.2,1,1000302,12.985159,77.646457,9.6,Medium,28,46,74,70,4,On Time,23,Night,0,Weekday,0.8,Positive
Delhi,New Delhi,Burger King,Kakrola,New Whopper Deluxe (Reg. Size Bun),Extra Crunchy Veg Whopper Deluxe(Reg. Size Bun).,149.0,4.3,12,1000303,13.009357,77.462039,10.64,Jam,28,83,111,74,37,Heavily Delayed,16,Evening,0,Weekday,0.825,Positive
Gujarat,Ahmedabad,Pastas By Pizza Hut,Near Science City,Appetizers,Sprinkled Fries,109.0,3.9,1,1000304,13.031523,77.632874,5.51,High,29,35,64,55,9,Slightly Delayed,19,Evening,1,Weekday,0.725,Neutral
Uttar Pradesh,Lucknow,Mahalaxmi Sweets & Restaurant,Aliganj,Breackfast,DHOKLA,105.0,4.6,553,1000305,13.093963,77.665182,13.61,High,29,74,103,87,16,Heavily Delayed,20,Night,1,Weekday,0.8999999999999999,Positive
Rajasthan,Jaipur,Cheesecake & Co.,Sindhi Camp,Jar,Tiramisu Jar,280.0,4.8,19,1000306,12.979075,77.560625,7.32,Medium,11,31,42,44,-2,On Time,14,Afternoon,1,Weekend,0.95,Positive
Tamil Nadu,Chennai,Kfc,Poonamallee,Desserts & Beverages,Pepsi 475ml Pet,57.14,4.5,46,1000307,12.930739,77.514623,8.19,High,32,43,75,68,7,Slightly Delayed,17,Evening,0,Weekday,0.875,Positive
Delhi,New Delhi,Pizza Hut,Dwarka,Recommended,Choco Volcano,129.0,4.2,90,1000308,13.048797,77.611289,14.28,High,27,79,106,87,19,Heavily Delayed,15,Afternoon,0,Weekday,0.8,Positive
Rajasthan,Jaipur,Sharma Dhaba,Kadam Vihar,Sabjiya,Dal makhani,120.0,3.5,2,1000309,12.917708,77.699957,14.71,Medium,30,59,89,92,-3,On Time,10,Morning,0,Weekday,0.625,Neutral
Haryana,Gurgaon,Domino'S Pizza,Vasant Kunj,Garlic Breads & Dips,Makhani Paneer Tikka Garlic Bread,189.0,3.8,6,1000310,12.959743,77.547064,10.26,High,40,59,99,85,14,Slightly Delayed,20,Night,1,Weekend,0.7,Neutral
Karnataka,Bengaluru,The Biryani Life,Gunjur Village,Haleem Specials,Chicken Haleem & Paratha Thali,249.0,4.1,2,1000311,12.869614,77.525741,14.23,Jam,14,107,121,74,47,Heavily Delayed,12,Afternoon,0,Weekend,0.7749999999999999,Positive
Telangana,Hyderabad,Burger King,Pebel City,Recommended,Crispy Chicken Burger,99.0,4.0,180,1000312,12.856338,77.533681,8.58,Medium,17,38,55,55,0,On Time,8,Morning,0,Weekday,0.75,Positive
Karnataka,Bengaluru,Thalassery Restaurant,Rajarajeshwari Nagar,Recommended,Butter Roti,47.0,3.8,3,1000313,13.090662,77.73474,5.3,High,24,31,55,49,6,Slightly Delayed,21,Night,1,Weekend,0.7,Neutral
Rajasthan,Jaipur,Tan-Sukh By Kanha,Jagatpura,Breads,Plain Naan,110.0,4.9,9,1000314,13.058995,77.557783,5.41,High,23,35,58,49,9,Slightly Delayed,21,Night,1,Weekend,0.9750000000000001,Positive
West Bengal,Kolkata,South Indian Coffee House,Behala,Drinks,Cold Coffee,72.0,4.4,94,1000315,13.023994,77.451081,8.83,High,37,50,87,76,11,Slightly Delayed,22,Night,0,Weekday,0.8500000000000001,Positive
Jharkhand,Ranchi,Kaveri - Lalpur,Lalpur,Soup,Sweet Corn Soup,171.0,4.8,26,1000316,12.952238,77.684504,9.47,High,19,54,73,60,13,Slightly Delayed,17,Evening,0,Weekday,0.95,Positive
West Bengal,Kolkata,Makhani Darbar,Rajarhat,Starters,Dahi Kebab ( 4-Pcs),189.0,3.5,8,1000317,12.893324,77.659782,7.15,High,15,40,55,47,8,Slightly Delayed,14,Afternoon,1,Weekday,0.625,Neutral
Nagaland,Kohima,Domino'S Pizza,Kohima Locality,Burgers & Parcels,Chicken Parcel,65.0,4.6,48,1000318,12.889109,77.48857,13.37,High,29,72,101,86,15,Slightly Delayed,9,Morning,0,Weekday,0.8999999999999999,Positive
Uttarakhand,Dehradun,La Pino'Z Pizza,Pitambar plaza,Beverages,Kinley Plus 1 Ltr,20.0,4.3,13,1000319,12.912561,77.745471,6.97,Low,13,28,41,45,-4,On Time,11,Afternoon,0,Weekday,0.825,Positive
Gujarat,Ahmedabad,1944 The Hocco Kitchen,Bopal,Continental,Baked Lasagne,559.0,4.6,1,1000320,12.987307,77.632419,4.83,Medium,12,23,35,35,0,On Time,11,Afternoon,0,Weekend,0.8999999999999999,Positive
West Bengal,Kolkata,Shanghai Flavours Of China Town,Behala,Momo Mania,Chicken Chili Momo (5 Pc),199.0,4.6,21,1000321,13.028649,77.600234,1.11,Low,40,10,50,49,1,On Time,20,Night,1,Weekend,0.8999999999999999,Positive
Karnataka,Bengaluru,Kanti Sweets,Yelahanka New,Sweets,Ghee Jalebi,104.76,4.3,72,1000322,13.015049,77.564666,14.59,High,29,81,110,90,20,Heavily Delayed,12,Afternoon,0,Weekend,0.825,Positive
Assam,Guwahati,Kfc,Ganeshguri,Rolls,Thai Spicy Roll & Popcorn Chicken Meal,319.0,4.3,1,1000323,12.919983,77.719602,12.54,Medium,34,57,91,87,4,On Time,12,Afternoon,0,Weekday,0.825,Positive
Punjab,Chandigarh,Kfc,Sunny Enclave,Flat 179 Meals/Bucket,Rice Bowlz - Popcorn Chicken,229.52,4.5,16,1000324,13.088716,77.523189,9.62,Medium,34,45,79,76,3,On Time,17,Evening,0,Weekday,0.875,Positive
Jharkhand,Ranchi,Shree Gangaur,Jai Prakash Nagar,Sweets,Parwal (Per Pc),46.0,4.6,13,1000325,13.034474,77.535731,12.63,Jam,21,102,123,75,48,Heavily Delayed,12,Afternoon,0,Weekday,0.8999999999999999,Positive
Kerala,Kochi,Pizza Hut,Edappally,Recommended,Chicken Sausage,259.0,4.6,161,1000326,12.988589,77.486723,12.34,High,29,67,96,82,14,Slightly Delayed,21,Night,1,Weekday,0.8999999999999999,Positive
Delhi,New Delhi,Mcdonald'S,Rohini,Extra Value Meal Large,Large EVM Tandoori Chicken Wrap,277.0,4.6,1,1000327,13.00293,77.677736,14.05,High,37,74,111,96,15,Slightly Delayed,22,Night,0,Weekend,0.8999999999999999,Positive
Karnataka,Bengaluru,Edesia By Freshmenu,YELAHANKA,Desserts,Dutch Truffle-Cake,149.0,4.1,3,1000328,12.9549,77.628665,6.4,Medium,40,27,67,69,-2,On Time,17,Evening,0,Weekend,0.7749999999999999,Positive
West Bengal,Kolkata,Kfc,Diamond Harbour,Burgers,Zinger Pro Burger,249.0,4.1,80,1000329,12.911933,77.63272,8.77,Medium,18,36,54,57,-3,On Time,19,Evening,1,Weekday,0.7749999999999999,Positive
Rajasthan,Jaipur,Dream Cafe Jaipur,Jagatpura,Chinese,Chilli Potato,135.0,2.0,6,1000330,12.938993,77.515541,2.38,Low,18,28,46,32,14,Slightly Delayed,16,Evening,0,Weekday,0.25,Negative
Gujarat,Ahmedabad,Kfc,Prahlad Nagar,Desserts & Beverages,Pepsi Reusable Bottle,108.57,5.0,1,1000331,13.039462,77.645351,14.51,High,18,82,100,79,21,Heavily Delayed,11,Afternoon,0,Weekday,1.0,Positive
Karnataka,Bengaluru,Mcdonald'S,Sarjapur-Marathahalli Road,Mcsaver Combos (2 Pc Meals),McChicken Burger + McSpicy Chicken Burger,315.23,4.2,35,1000332,12.853598,77.679638,14.79,High,42,77,119,104,15,Slightly Delayed,17,Evening,0,Weekday,0.8,Positive
Uttar Pradesh,Lucknow,Rominus Pizza And Burger,Vrindavan Colony,Taco'S,Non Veg Taco,145.0,4.0,16,1000333,12.879018,77.557367,12.05,Medium,31,52,83,82,1,On Time,17,Evening,0,Weekday,0.75,Positive
Odisha,Bhubaneswar,Wow! China,Cda Sector 6,Wow! Birthday Save Up To41%,Veg Fried Rice With Chilli Paneer,289.0,4.3,77,1000334,12.861501,77.690404,7.36,Medium,10,33,43,43,0,On Time,19,Evening,1,Weekday,0.825,Positive
Tamil Nadu,Chennai,Sree Vishnu Bhavan,Chennai,Breakfast Buffet,Special Idiyappam Combo,259.0,4.9,22,1000335,12.860182,77.554637,7.95,Medium,23,33,56,59,-3,On Time,15,Afternoon,0,Weekday,0.9750000000000001,Positive
Tripura,Agartala,Sherowali Sweets,Laxmi Narayan Bari Road,Sweets,Gulab Jamun [1 Piece],20.0,4.4,15,1000336,13.063865,77.677442,7.1,Medium,26,32,58,58,0,On Time,15,Afternoon,0,Weekday,0.8500000000000001,Positive
Punjab,Chandigarh,Burger King,Panchkula,Exclusive Deals (Save Upto 40%),BK Veggie Burger + Crispy Veg Burger.,209.0,4.2,227,1000337,13.025914,77.460119,5.11,High,33,33,66,57,9,Slightly Delayed,19,Evening,1,Weekend,0.8,Positive
Maharashtra,Mumbai,Globo Ice Creams Of The World,Nerul,Recommended,Dutch Chocolate Brownie Fudge Ice Cream,89.0,4.4,1,1000338,12.968543,77.615349,8.39,High,18,48,66,55,11,Slightly Delayed,9,Morning,0,Weekday,0.8500000000000001,Positive
Tamil Nadu,Chennai,Domino'S Pizza,Aerohub,Flavours Of India,Indi Tandoori Paneer Pizza,319.0,5.0,3,1000339,12.874459,77.740858,1.75,Low,19,11,30,30,0,On Time,18,Evening,0,Weekend,1.0,Positive
Kerala,Kochi,Pizza Hut,Edappally,Recommended,Country Feast,319.0,4.7,26,1000340,12.972904,77.744373,14.89,High,27,83,110,90,20,Heavily Delayed,19,Evening,1,Weekday,0.925,Positive
Odisha,Bhubaneswar,Priya Restaurant,Kalinga Nagar,Dal,Plain Dal,127.0,5.0,46,1000341,12.968368,77.534526,6.94,Jam,18,57,75,50,25,Heavily Delayed,20,Night,1,Weekday,1.0,Positive
Karnataka,Bengaluru,Freshmenu,Yelahanka,Appetizers,Peri Peri Potato Wedges,149.0,3.8,53,1000342,12.8933,77.58242,13.98,Jam,22,109,131,81,50,Heavily Delayed,13,Afternoon,1,Weekend,0.7,Neutral
Maharashtra,Mumbai,Domino'S Pizza,SHREEJI PLAZA,Cheese Burst - 3 New Flavours,Fresh Veggie Cheese Burst,298.0,4.1,1,1000343,12.958463,77.468893,11.14,High,43,62,105,91,14,Slightly Delayed,14,Afternoon,1,Weekend,0.7749999999999999,Positive
Gujarat,Ahmedabad,Lunchbox - Meals And Thalis,Sola,Paratha Lunchbox,Smoked Butter Chicken and Paratha Lunchbox,329.0,4.3,2,1000344,12.949626,77.712002,5.06,Medium,13,22,35,37,-2,On Time,19,Evening,1,Weekday,0.825,Positive
Punjab,Chandigarh,The Prashadam,Manimajra,Cakes,Red Velvet Pastry,95.0,4.4,17,1000345,13.003963,77.620572,4.11,Low,40,17,57,61,-4,On Time,16,Evening,0,Weekend,0.8500000000000001,Positive
Assam,Guwahati,Food Exx, BIRKUCHI,Rolls,Double Chicken Kathi Roll,150.0,3.3,3,1000346,13.008773,77.56553,14.94,High,40,93,133,103,30,Heavily Delayed,15,Afternoon,0,Weekday,0.575,Neutral
Maharashtra,Mumbai,Box8 - Desi Meals,Nerul,Mini Thali Meals,Aloo Matar Mini Meal,219.0,4.1,6,1000347,12.861326,77.483831,11.81,High,36,67,103,87,16,Heavily Delayed,17,Evening,0,Weekday,0.7749999999999999,Positive
Tamil Nadu,Chennai,Sangeetha'S Desi Mane - Annanagar,Annanagar,Chinese Starters,Crispy Corn,265.0,4.6,16,1000348,12.943653,77.73403,4.5,Medium,34,21,55,56,-1,On Time,8,Morning,0,Weekday,0.8999999999999999,Positive
Gujarat,Ahmedabad,Wow! Momo,Thaltej,Steam Momo,Chicken Cheese Steam Momo,329.0,4.9,5,1000349,13.006465,77.609066,1.94,Medium,33,11,44,45,-1,On Time,8,Morning,0,Weekday,0.9750000000000001,Positive
Manipur,Imphal,Munchies,Keishampat,Soup,Sweet Corn Soup ,150.0,5.0,5,1000350,12.975784,77.534878,10.76,Jam,21,82,103,67,36,Heavily Delayed,10,Morning,0,Weekend,1.0,Positive
Gujarat,Ahmedabad,The Chocolate Room,Vaishno Devi Circle,Cakes,Ferrero Rocher Cake [500 Gm],1299.0,4.6,1,1000351,13.064122,77.555065,5.24,Medium,30,26,56,55,1,On Time,19,Evening,1,Weekend,0.8999999999999999,Positive
Haryana,Gurgaon,Mealy - Your Everyday Meal,Vasant Kunj,All Day Breakfast & Snacks,Egg Bhurji (3 Eggs),149.0,4.8,105,1000352,13.014673,77.531209,4.1,Low,26,14,40,46,-6,Early,20,Night,1,Weekend,0.95,Positive
Jammu and Kashmir,Srinagar,Kfc,Sanath Nagar,Burgers,Chicken Zinger Burger - Classic,209.0,4.2,442,1000353,12.890734,77.630543,11.29,Jam,11,88,99,60,39,Heavily Delayed,21,Night,1,Weekday,0.8,Positive
Kerala,Kochi,Big Bowl,Vazakala,Drinks,Coolberg Cranberry,118.75,4.1,2,1000354,12.867642,77.728989,10.51,High,37,57,94,82,12,Slightly Delayed,19,Evening,1,Weekday,0.7749999999999999,Positive
West Bengal,Kolkata,6 Ballygunge Place Takeaway,Rajarhat,Biriyani Special,"Dhakai Mutton Biriyani [1 Piece Mutton, 1 Piece Potato]",350.0,4.3,37,1000355,13.010605,77.707008,7.74,High,23,46,69,58,11,Slightly Delayed,17,Evening,0,Weekday,0.825,Positive
Jharkhand,Ranchi,Gangaur Next,Lalpur,Dry Namkeens,Panchratan Mixture (250 gms),232.0,5.0,14,1000356,12.856628,77.588114,14.2,Medium,18,61,79,78,1,On Time,11,Afternoon,0,Weekday,1.0,Positive
Haryana,Gurgaon,Burger King,Chattarpur,Korean Spicy Fest(Limited Time Only),2 Korean Spicy Paneer Burger @ 399.,399.0,4.6,1,1000357,12.996444,77.69795,10.51,Jam,13,85,98,58,40,Heavily Delayed,18,Evening,0,Weekend,0.8999999999999999,Positive
Punjab,Chandigarh,Olio - The Wood Fired Pizzeria,SECTOR 24,House Special Garlic Breads!,Popeye's Spinach Garlic Bread,239.0,4.6,89,1000358,13.085058,77.576932,13.51,High,14,75,89,71,18,Heavily Delayed,20,Night,1,Weekday,0.8999999999999999,Positive
Kerala,Kochi,Palaaram,Vyttila,Fried Rice And Noodles,Chicken Noodles,261.82,4.6,232,1000359,12.993869,77.525692,3.67,Low,22,14,36,41,-5,On Time,23,Night,0,Weekend,0.8999999999999999,Positive
Maharashtra,Mumbai,Freshmenu,Waghbil,Sandwiches And Wraps,Egg Scramble Muffin,149.0,4.5,3,1000360,12.947042,77.745025,5.15,High,30,29,59,55,4,On Time,17,Evening,0,Weekday,0.875,Positive
Karnataka,Bengaluru,Lunchbox - Meals And Thalis,Whitefield,Executive Lunchbox,Rajma Masala Jumbo Lunchbox,299.0,4.1,47,1000361,13.010822,77.541166,2.46,High,23,14,37,37,0,On Time,17,Evening,0,Weekday,0.7749999999999999,Positive
Bihar,Patna,Sweet Truth - Cake And Desserts,Boring Road,Party Combos,Red Velvet Pastry & New York Cheesecake (Box of 2),279.0,4.9,2,1000362,12.964563,77.547117,5.26,Medium,27,25,52,52,0,On Time,16,Evening,0,Weekday,0.9750000000000001,Positive
Sikkim,Gangtok,Pizza Hut,Gangtok,Garlic Bread,Exotica Veggie Garlic Bread,159.0,4.0,5,1000363,12.986404,77.746908,14.6,Medium,18,60,78,79,-1,On Time,9,Morning,0,Weekday,0.75,Positive
Gujarat,Ahmedabad,Mcdonald'S,Ghatlodia,Mcsaver Combos (2 Pc Meals),McSpicy Chicken Burger + Fries (M) + Piri Piri Spice Mix,295.23,5.0,11,1000364,13.085366,77.490178,14.48,High,35,79,114,96,18,Heavily Delayed,10,Morning,0,Weekend,1.0,Positive
Telangana,Hyderabad,Ks Bakers,Miyapur,Bakers Choice,Red Velvet Cream Cheese Pastry,159.0,4.1,60,1000365,12.946526,77.67816,11.65,Jam,36,94,130,86,44,Heavily Delayed,16,Evening,0,Weekday,0.7749999999999999,Positive
Karnataka,Bengaluru,Theobroma,Vijay Nagar,Breads,Multigrain Loaf [400g],110.0,4.6,33,1000366,13.090298,77.730744,8.29,Medium,30,39,69,67,2,On Time,19,Evening,1,Weekday,0.8999999999999999,Positive
West Bengal,Kolkata,"Bhatti Chicken - Grilled, Not Fried!",Jessore Rd,Desserts & Drinks,Nachos + Coke Combo @ Rs.49,49.0,4.2,3,1000367,13.076338,77.603538,11.93,Medium,39,51,90,90,0,On Time,14,Afternoon,1,Weekday,0.8,Positive
West Bengal,Kolkata,Lunchbox - Meals And Thalis,Thakurpukur,All Day Breakfast Box,Double Omelette & Wedges with Masala Bread,199.0,4.9,14,1000368,12.898948,77.450757,8.75,Low,19,31,50,58,-8,Early,20,Night,1,Weekday,0.9750000000000001,Positive
Assam,Guwahati,Confucius (Silpukhuri),Silpukhuri,Recommended,Veg Pan Fried Noodles,300.0,4.8,12,1000369,12.86734,77.562518,1.05,Low,41,10,51,50,1,On Time,20,Night,1,Weekend,0.95,Positive
Uttar Pradesh,Lucknow,The Belgian Waffle Co.,Aliganj,Recommended,Mini Waffle Box of 4 - Chocoholic's,365.0,4.8,21,1000370,12.875195,77.483471,8.02,Low,15,33,48,51,-3,On Time,23,Night,0,Weekday,0.95,Positive
Gujarat,Ahmedabad,Tea Post,Sindhu Bhavan Raod Near TAJ,Sandwich,Vegetable Grilled Sandwich,135.0,4.3,1,1000371,12.854555,77.574856,9.38,Medium,35,40,75,76,-1,On Time,17,Evening,0,Weekday,0.825,Positive
Chhattisgarh,Raipur,Domino'S Pizza,Telibandha Square,Recommended,Capsicum & Red Paprika with Videshi Hot Sauce,105.0,3.9,22,1000372,12.873611,77.687008,4.72,Medium,33,23,56,56,0,On Time,14,Afternoon,1,Weekend,0.725,Neutral
Meghalaya,Shillong,Wooden Plate,Keating Road,Wooden Plate Add- Ons,Raja Mircha Chutney,70.0,4.8,127,1000373,13.020752,77.581613,3.85,Medium,23,19,42,43,-1,On Time,12,Afternoon,0,Weekday,0.95,Positive
Gujarat,Ahmedabad,Mcdonald'S,Prahlad Nagar,Mcsaver Combos (2 Pc Meals),2 Coke,163.0,4.9,25,1000374,12.867797,77.579578,4.83,Medium,35,22,57,58,-1,On Time,11,Afternoon,0,Weekday,0.9750000000000001,Positive
Kerala,Kochi,Gokul Oottupura,Pallimukku,Quick Bites,Vada Single,29.0,4.7,0,1000375,12.929744,77.617037,9.73,Medium,16,42,58,58,0,On Time,14,Afternoon,1,Weekend,0.925,Positive
Tamil Nadu,Chennai,Burger King,Perambur,Korean Spicy Fest(Limited Time Only),Korean Spicy Paneer+Korean Spicy Fries(M).,359.0,4.7,6,1000376,13.061219,77.624507,3.04,Medium,11,16,27,27,0,On Time,13,Afternoon,1,Weekday,0.925,Positive
Odisha,Bhubaneswar,Hotel Toshali,Patia,Recommended,Broiler Chicken Kasa ,246.0,4.4,532,1000377,12.855818,77.706889,11.08,High,38,59,97,86,11,Slightly Delayed,20,Night,1,Weekend,0.8500000000000001,Positive
Rajasthan,Jaipur,Burger King,Jagatpura,New Whopper Deluxe (Reg. Size Bun),Crunchy Soft Paneer Whopper Deluxe(Reg. Size Bun)!,199.0,3.8,5,1000378,13.053617,77.542507,6.92,High,29,43,72,60,12,Slightly Delayed,15,Afternoon,0,Weekday,0.7,Neutral
Maharashtra,Mumbai,Mcdonald'S,Nerul,Mcsaver Combos (2 Pc Meals),McVeggie Burger + Fries (L),250.47,4.9,35,1000379,12.920464,77.696501,5.95,Medium,18,29,47,46,1,On Time,22,Night,0,Weekend,0.9750000000000001,Positive
Maharashtra,Mumbai,Radha Krishna,Thane Hiranandani Estate,Beverages,Rose Lassi,105.0,4.3,3,1000380,12.879541,77.61978,12.3,Medium,40,55,95,92,3,On Time,16,Evening,0,Weekday,0.825,Positive
Karnataka,Bengaluru,Hotel Annalakshmi,Yelahanka,Breakfast,Idly(2Pcs),55.0,4.8,21,1000381,13.024184,77.540159,8.08,High,30,45,75,66,9,Slightly Delayed,17,Evening,0,Weekend,0.95,Positive
Rajasthan,Jaipur,Tan-Sukh By Kanha,Jagatpura,Rice And Biryani,Classic Khichdi Plain,280.0,4.7,15,1000382,13.007236,77.538538,6.3,Medium,44,28,72,73,-1,On Time,10,Morning,0,Weekday,0.925,Positive
Odisha,Bhubaneswar,Mcdonald'S,Chandrasekharpur,Extra Value Meal Large,Large EVM McNuggets®  9pc,373.0,4.8,11,1000383,13.069368,77.558341,13.29,Jam,38,104,142,94,48,Heavily Delayed,12,Afternoon,0,Weekday,0.95,Positive
Nagaland,Kohima,Bambusa Express,High school,Sides,Smoked Chilli Pork,270.0,3.5,4,1000384,13.033768,77.636808,6.16,High,27,35,62,56,6,Slightly Delayed,12,Afternoon,0,Weekday,0.625,Neutral
Tamil Nadu,Chennai,Mcdonald'S,Nehru Nagar,Mexican Range & New Offerings,Mexican Grilled Chicken & Cheese Burger Combo (M),324.76,3.1,5,1000385,13.05087,77.519244,13.03,Jam,39,110,149,94,55,Heavily Delayed,9,Morning,0,Weekend,0.525,Neutral
Nagaland,Kohima,Royal Veg. Hotel,Kohima,Recommended,Plain Rice,99.0,4.7,4,1000386,12.920509,77.7261,8.06,High,22,48,70,58,12,Slightly Delayed,21,Night,1,Weekday,0.925,Positive
Chhattisgarh,Raipur,Kfc,Shankar Nagar,Burgers,Zinger Pro Burger,249.0,4.5,15,1000387,12.89436,77.622474,3.91,Low,20,17,37,40,-3,On Time,8,Morning,0,Weekday,0.875,Positive
Uttar Pradesh,Lucknow,Madhurima Veg,Ashiyana,Baked Snacks,Aloo Patties,45.0,4.7,352,1000388,13.037654,77.726005,9.58,Medium,34,45,79,76,3,On Time,21,Night,1,Weekend,0.925,Positive
Karnataka,Bengaluru,Nh1 Bowls - Highway To North,Rajarajeshwari Nagar,Everyday Classics,Millet Dal Khichdi Bowl - Healthy,199.0,4.5,1,1000389,13.051709,77.463921,4.99,Medium,35,29,64,59,5,On Time,9,Morning,0,Weekday,0.875,Positive
Maharashtra,Mumbai,Veg Sizzel'S,Vasant Vihar,Tandoori Snacks,Gobi Tandoori,370.0,4.9,4,1000390,13.097626,77.552783,3.06,Low,29,17,46,45,1,On Time,18,Evening,0,Weekday,0.9750000000000001,Positive
Delhi,New Delhi,Olio - The Wood Fired Pizzeria,NIHANKARI SATSANG BHAWAN,Recommended,Four Seasons Pizza,379.0,3.7,13,1000391,12.953154,77.456842,2.21,Medium,34,12,46,47,-1,On Time,13,Afternoon,1,Weekday,0.675,Neutral
West Bengal,Kolkata,Vip Sweets Pvt. Ltd.,Rajarhat,Cham Cham,Malai chop,120.0,3.8,17,1000392,12.943005,77.531676,4.38,High,19,22,41,41,0,On Time,13,Afternoon,1,Weekday,0.7,Neutral
Karnataka,Bengaluru,La Pino'Z Pizza,Vajarahalli Gramatana,Dessert,Triple Chocolate Brownie,129.0,4.7,13,1000393,13.044103,77.708602,11.31,High,22,64,86,71,15,Slightly Delayed,14,Afternoon,1,Weekend,0.925,Positive
Haryana,Gurgaon,Oven Story Pizza,Vasant Kunj,Super Saver Deals,Garden Fresh Veggie Pizza + Cheesy Garlic Bread,629.0,4.7,9,1000394,12.935201,77.460983,12.73,Medium,41,55,96,95,1,On Time,23,Night,0,Weekend,0.925,Positive
Meghalaya,Shillong,The Chicken Wagon,Laitumkhrah,Single Order,Chicken Strips Only [Boneless chicken (4 pieces) + dipping sauce],280.0,4.5,575,1000395,13.082689,77.580844,13.06,Jam,44,103,147,99,48,Heavily Delayed,9,Morning,0,Weekend,0.875,Positive
Telangana,Hyderabad,Agra Sweets Banjara,Huda Layout,Signature Sweets,Kesari Peda,340.0,4.7,31,1000396,13.064603,77.48527,4.78,Low,34,18,52,57,-5,On Time,13,Afternoon,1,Weekday,0.925,Positive
Maharashtra,Mumbai,Pizzaexpress,Seawoods,Garlic Breads & Starters,Garlic Bread Mozzarella,255.0,4.7,42,1000397,12.957249,77.575052,10.25,High,33,59,92,77,15,Slightly Delayed,9,Morning,0,Weekday,0.925,Positive
Karnataka,Bengaluru,Nic Ice Creams,Varthur,500 Ml Ice Creams,Chocochips Ice Cream 500ml,296.61,4.8,113,1000398,13.037718,77.701655,4.22,Low,38,14,52,59,-7,Early,12,Afternoon,0,Weekday,0.95,Positive
Gujarat,Ahmedabad,Kfc,Prahlad Nagar,Epic Value Meals For 1-2 (Up To Rs 22% Off),Chicken Popcorn & French Fries Bucket,328.57,4.5,91,1000399,13.038636,77.636921,9.72,High,44,57,101,86,15,Slightly Delayed,10,Morning,0,Weekday,0.875,Positive
Haryana,Gurgaon,Bikanervala,Palam Vihar,"Chaat, Snacks & Quickbites",Bread Pakoda,45.0,4.2,68,1000400,12.875781,77.671027,13.42,Jam,30,109,139,87,52,Heavily Delayed,19,Evening,1,Weekday,0.8,Positive
Karnataka,Bengaluru,Theobroma,Forum Mall,Croissants & Danishes,Blueberry Danish [1 Piece],105.0,4.7,17,1000401,13.075638,77.554731,1.57,Low,21,10,31,32,-1,On Time,8,Morning,0,Weekday,0.925,Positive
Uttarakhand,Dehradun,Kalsang Friends Corner,Hathibarkala Salwala,Soup,Chicken Tom Kha Soup,259.0,3.9,1,1000402,12.976313,77.733319,14.79,Jam,16,116,132,78,54,Heavily Delayed,14,Afternoon,1,Weekday,0.725,Neutral
Goa,Panaji,Mcdonald'S,Calangute,Burger Combos ( 3 Pc Meals ),Korean Mc Spicy Chicken Burger Combo (M).,372.38,3.9,9,1000403,13.056614,77.662779,12.58,High,16,66,82,70,12,Slightly Delayed,9,Morning,0,Weekday,0.725,Neutral
Karnataka,Bengaluru,Lunchbox - Meals And Thalis,Sarjapur Road Yamare,Starters,Falafel Nuggets with Mayo Dip,109.0,4.7,3,1000404,12.930012,77.57654,11.66,High,30,66,96,80,16,Heavily Delayed,23,Night,0,Weekday,0.925,Positive
Jammu and Kashmir,Srinagar,Lacima Cafe & Pizzeria,Karanagar,Pasta,Red Hot Veg Pasta,385.0,4.6,7,1000405,13.073881,77.577939,10.68,Medium,26,49,75,72,3,On Time,13,Afternoon,1,Weekday,0.8999999999999999,Positive
Bihar,Patna,Veer Ji Malai Chaap Wale,Hajipur,Soya Gravy Items,Veer Ji Special Leg Piece Gravy,295.0,4.7,3,1000406,12.9473,77.725605,11.78,High,13,66,79,63,16,Heavily Delayed,15,Afternoon,0,Weekday,0.925,Positive
Gujarat,Ahmedabad,Mcdonald'S,Ghatlodia,Burger Combos ( 3 Pc Meals ),McSpicy Paneer Burger Combo,344.76,4.7,69,1000407,12.852709,77.622921,14.92,Jam,42,114,156,105,51,Heavily Delayed,19,Evening,1,Weekend,0.925,Positive
Meghalaya,Shillong,The Phoenix Residency,Nongthymmai Nongkhyriem,Starters Non Veg,Fish Finger,350.0,4.4,115,1000408,13.076345,77.661914,11.78,High,17,61,78,67,11,Slightly Delayed,12,Afternoon,0,Weekend,0.8500000000000001,Positive
Kerala,Kochi,Zaatar Arabic Restaurant,Palarivattom,Platters,Al Faham Platter,1470.0,4.9,33,1000409,12.872822,77.575111,5.92,Medium,27,27,54,55,-1,On Time,14,Afternoon,1,Weekday,0.9750000000000001,Positive
Punjab,Chandigarh,Caterspoint,Phase 7 Mohali,Rice Meal Bowl,Barbecue Paneer Rice Bowl,339.0,4.6,12,1000410,12.929828,77.517108,9.59,High,25,54,79,67,12,Slightly Delayed,18,Evening,0,Weekday,0.8999999999999999,Positive
Maharashtra,Mumbai,Nh1 Bowls - Highway To North,Nerul,Veg Rice Bowls [Masala Rice],Townhall's Kadhai Paneer [Masala Rice] Bowl,299.0,5.0,3,1000411,13.087515,77.667068,5.72,Medium,40,29,69,67,2,On Time,18,Evening,0,Weekday,1.0,Positive
Karnataka,Bengaluru,Eatfit,Dommasandra,3 Layer Rice Bowl,"Lasooni Methi Paneer, Soya Masala Sabzi & Jeera Pulao",274.0,4.4,17,1000412,13.087652,77.632347,14.58,High,26,78,104,87,17,Heavily Delayed,20,Night,1,Weekend,0.8500000000000001,Positive
Karnataka,Bengaluru,Pizza Hut,Jalahalli Cross,Pasta,Cosy Comfort White Sauce Chicken Pasta,209.0,2.8,4,1000413,12.993359,77.600403,13.6,Jam,38,120,158,96,62,Heavily Delayed,20,Night,1,Weekday,0.44999999999999996,Negative
Maharashtra,Mumbai,Subway,Nerul,Recommended,Classic Veggie Craver (10cm),169.0,4.8,4,1000414,13.007959,77.637206,8.95,High,26,52,78,65,13,Slightly Delayed,16,Evening,0,Weekday,0.95,Positive
Gujarat,Ahmedabad,Kfc,Rangat Green Memories,Burgers,Zinger Pro Burger & Chicken Meal,409.0,4.7,4,1000415,12.962111,77.512486,11.94,High,35,66,101,86,15,Slightly Delayed,19,Evening,1,Weekday,0.925,Positive
Jharkhand,Ranchi,Shree Gangaur,Jai Prakash Nagar,Snacks,Paneer Patties,46.0,4.7,75,1000416,12.923303,77.688182,13.74,Jam,19,109,128,77,51,Heavily Delayed,9,Morning,0,Weekday,0.925,Positive
Assam,Guwahati,Mcdonald'S,Ganeshguri,Happy Meal,Happy Meal McAloo Tikki Burger*,183.0,4.6,10,1000417,12.932166,77.734449,4.41,Low,24,17,41,46,-5,On Time,12,Afternoon,0,Weekday,0.8999999999999999,Positive
Bihar,Patna,Kingdom Of Momos,Kankarbagh ,Classic Momos,Veg Classic Momos (Fried) (6 Pcs),190.0,3.7,4,1000418,13.01813,77.717331,9.11,High,40,49,89,80,9,Slightly Delayed,22,Night,0,Weekday,0.675,Neutral
Karnataka,Bengaluru,Srivari Bhimmas,Yelahanka,Fried Rice,Schezwan Fried Rice,290.0,4.5,3,1000419,13.038094,77.546431,7.74,Medium,17,34,51,52,-1,On Time,22,Night,0,Weekday,0.875,Positive
Meghalaya,Shillong,Mithaas,Demseiniong,Sweet,Meetha Bundi,110.0,4.3,11,1000420,13.047895,77.571802,11.8,High,11,63,74,62,12,Slightly Delayed,18,Evening,0,Weekend,0.825,Positive
Goa,Panaji,The Belgian Waffle Co.,Vasco,Recommended,Mini Waffle Box of 4 - Chocoholic's,365.0,4.8,17,1000421,13.047405,77.692521,6.31,Medium,24,32,56,53,3,On Time,12,Afternoon,0,Weekend,0.95,Positive
Gujarat,Ahmedabad,Saurashtra Chawana & Sweets,"Sachin Tower, Prahladnagar",Milk Sweets,Malai Prasadi Peda,135.0,4.8,5,1000422,12.872802,77.628535,10.93,High,33,62,95,80,15,Slightly Delayed,20,Night,1,Weekday,0.95,Positive
Karnataka,Bengaluru,Chinese Wok,Uttarahalli,Recommended,Hunan Chicken Bowl,319.0,4.4,16,1000423,12.973605,77.614374,6.64,High,37,34,71,67,4,On Time,21,Night,1,Weekend,0.8500000000000001,Positive
Punjab,Chandigarh,Amritsari Food Platter,Sector 125 Mohali,Shakes And Lassi,Cold Coffee,99.0,4.4,59,1000424,12.86439,77.727993,2.56,Low,15,13,28,29,-1,On Time,10,Morning,0,Weekday,0.8500000000000001,Positive
Tamil Nadu,Chennai,Itc Master Chef Creations,Pallavaram,Recommended,Masala Paneer Kulcha Dabeli Sandwich [4 pcs],399.0,4.7,23,1000425,12.987382,77.610807,2.5,Low,12,10,22,26,-4,On Time,18,Evening,0,Weekday,0.925,Positive
Punjab,Chandigarh,Chinese Wok,Gold Square,Recommended,Schezwan Chicken Dry - Full,379.0,4.7,4,1000426,12.960383,77.604482,2.67,Medium,25,13,38,40,-2,On Time,18,Evening,0,Weekend,0.925,Positive
Karnataka,Bengaluru,Dum Safar Biryani,Kanakapura Road,Half Biryani,Half Hyderabadi Paneer Dum Biryani,239.0,4.4,2,1000427,13.071926,77.462606,1.46,High,11,14,25,21,4,On Time,20,Night,1,Weekend,0.8500000000000001,Positive
Odisha,Bhubaneswar,Mahalaxmi Sweets,Telenga Bazar,Sweets,Rasabali (1Pc),20.0,4.6,169,1000428,12.937729,77.470825,8.46,High,19,44,63,56,7,Slightly Delayed,17,Evening,0,Weekend,0.8999999999999999,Positive
Punjab,Chandigarh,Gopal'S,Sector 8 Panchkula,Chaat,Dahi Gol Gappa,159.0,2.9,214,1000429,12.879267,77.452226,10.41,High,12,68,80,57,23,Heavily Delayed,13,Afternoon,1,Weekday,0.475,Negative
Odisha,Bhubaneswar,Pizza Hut,Baxi Bazar,Veg Pizza,Double Cheese Margherita,219.0,4.1,16,1000430,12.885748,77.723973,2.77,Medium,20,13,33,35,-2,On Time,21,Night,1,Weekday,0.7749999999999999,Positive
Tripura,Agartala,Ujjwala Restaurant,BATTALA BAZAR,Chicken Biryani,Chicken half & half biryani,160.0,4.6,108,1000431,13.040378,77.572516,9.57,High,34,50,84,76,8,Slightly Delayed,23,Night,0,Weekday,0.8999999999999999,Positive
Jharkhand,Ranchi,Kaveri - Lalpur,Lalpur,Chinese Delight,Baby Corn Manchurian,328.0,3.3,104,1000432,13.004555,77.590568,9.37,Medium,11,43,54,52,2,On Time,10,Morning,0,Weekend,0.575,Neutral
Karnataka,Bengaluru,Bowl Soul,Electronic City,Recommended,Protein-Packed Chicken Omelette,249.0,4.4,1,1000433,12.875281,77.703616,3.06,Medium,18,16,34,34,0,On Time,16,Evening,0,Weekday,0.8500000000000001,Positive
Maharashtra,Mumbai,"Wefit - Protein Bowls, Salads & Sandwiches",Nerul,Wefit Multigrain Sandwiches,Pesto Paneer & Cheese Sandwich [35g Protein],229.0,4.7,2,1000434,12.871027,77.632774,6.66,Medium,28,27,55,58,-3,On Time,13,Afternoon,1,Weekend,0.925,Positive
Delhi,New Delhi,Big Bowl,Gaur City 1,Recommended,Black Pepper Chicken Bowl,319.0,4.3,39,1000435,13.025242,77.63285,11.57,High,39,63,102,89,13,Slightly Delayed,23,Night,0,Weekday,0.825,Positive
Meghalaya,Shillong,Wooden Plate,Keating Road,Recommended,Pork With Fresh Bamboo Shoot - Half (gravy),225.0,4.6,228,1000436,12.868191,77.53896,1.23,Medium,10,10,20,19,1,On Time,14,Afternoon,1,Weekend,0.8999999999999999,Positive
Delhi,New Delhi,Theobroma,Rohini,Recommended,Eggless Dutch Truffle Cake [500g],625.0,4.8,21,1000437,13.055465,77.700173,3.06,Medium,32,18,50,48,2,On Time,8,Morning,0,Weekend,0.95,Positive
Tamil Nadu,Chennai,Ss Hyderabad Biryani,Sriperumbudur,Ice Cream,Fruit Salad With Ice Cream,100.0,4.6,4,1000438,13.026561,77.499749,14.94,Jam,10,118,128,73,55,Heavily Delayed,17,Evening,0,Weekend,0.8999999999999999,Positive
Goa,Panaji,Wow! Momo,Anjuna,Burger Momo [Moburg],Chicken Moburg,129.0,4.1,54,1000439,12.870337,77.465945,11.27,High,20,59,79,68,11,Slightly Delayed,14,Afternoon,1,Weekday,0.7749999999999999,Positive
Karnataka,Bengaluru,Polar Bear,Kanakapura Road,Naturally Good Sundaes,Naturally Jaggery Almond Fusion sundae,251.0,4.9,10,1000440,12.871209,77.507481,7.5,High,25,40,65,59,6,Slightly Delayed,17,Evening,0,Weekday,0.9750000000000001,Positive
Uttarakhand,Dehradun,Kfc,Oasis Mall,Burgers,Mixed Chicken Zinger Burger Doubles,368.57,4.2,78,1000441,13.09666,77.530321,9.82,Medium,38,40,78,81,-3,On Time,21,Night,1,Weekend,0.8,Positive
Meghalaya,Shillong,Hotel Heiga,Dhankheti,Recommended,Dal Makhani,396.0,4.6,106,1000442,12.943568,77.534693,12.85,High,16,72,88,71,17,Heavily Delayed,12,Afternoon,0,Weekday,0.8999999999999999,Positive
Delhi,New Delhi,Sweet Truth - Cake And Desserts,Sector 19,Dessert Jars,Death by Chocolate Cake Jar,149.0,4.3,5,1000443,12.942661,77.651154,12.79,Medium,13,55,68,67,1,On Time,13,Afternoon,1,Weekend,0.825,Positive
Tamil Nadu,Chennai,Sandy'S Chocolate Laboratory,Nungambakkam,Sharing Plates,Peri Peri Fries With Mayo,290.0,4.3,7,1000444,13.0532,77.515347,5.55,Medium,19,25,44,45,-1,On Time,23,Night,0,Weekend,0.825,Positive
Goa,Panaji,Mcdonald'S,Calangute,Cakes Brownies And Cookies,Indulge Combo,171.0,4.6,2,1000445,13.086812,77.652997,7.88,Medium,33,33,66,68,-2,On Time,16,Evening,0,Weekend,0.8999999999999999,Positive
Assam,Guwahati,Kfc,Ganeshguri,Burgers,Chicken Zinger Burger - Classic with Cheese,262.08,4.6,46,1000446,13.0965,77.47734,9.93,High,39,55,94,82,12,Slightly Delayed,9,Morning,0,Weekday,0.8999999999999999,Positive
Odisha,Bhubaneswar,Subway,Patia,Recommended,Cheesy American BBQ,329.0,4.8,15,1000447,13.038345,77.494161,2.01,Medium,19,15,34,31,3,On Time,21,Night,1,Weekend,0.95,Positive
Delhi,New Delhi,Pizza Hut,Raj Nagar,Non Veg Pizza,Sizzling Schezwan Chicken,319.0,4.1,1,1000448,12.944065,77.602646,14.24,Jam,16,114,130,76,54,Heavily Delayed,11,Afternoon,0,Weekday,0.7749999999999999,Positive
Punjab,Chandigarh,Apna Vaishno Dhaba,Sector 10 Panchkula,Tandoor Se,Simple Naan,60.0,4.4,99,1000449,12.870875,77.726569,7.06,Medium,42,29,71,74,-3,On Time,16,Evening,0,Weekend,0.8500000000000001,Positive
Uttar Pradesh,Lucknow,Neelkanth Sweets,Gomti Nagar,Mithai Packs,Mewa Bite (24 Pcs),929.0,5.0,4,1000450,13.044287,77.70787,6.19,Medium,29,31,60,58,2,On Time,12,Afternoon,0,Weekday,1.0,Positive
Punjab,Chandigarh,Mcdonald'S,Sector 11 Panchkula,Mccrispy Range,Large Crispy Veggie*,360.0,4.5,1,1000451,12.989601,77.740626,13.7,Medium,15,55,70,73,-3,On Time,14,Afternoon,1,Weekday,0.875,Positive
Maharashtra,Mumbai,Mani'S Cafe,Airoli,South Indian,Schezwan sada dosa,125.0,4.4,2,1000452,12.956056,77.645144,2.66,Medium,31,14,45,46,-1,On Time,13,Afternoon,1,Weekday,0.8500000000000001,Positive
Assam,Guwahati,Pizza Hut,Hatigaon,Non Veg Pizza,Nawabi Murg Makhni,409.0,4.8,8,1000453,13.076589,77.652744,1.55,Low,25,10,35,36,-1,On Time,17,Evening,0,Weekday,0.95,Positive
West Bengal,Kolkata,Wow! China,Nemai Bhawan,Wow! Kulfi  Dessert,Stick Kulfi Mango,99.0,4.8,4,1000454,12.877799,77.637507,10.59,High,25,59,84,71,13,Slightly Delayed,22,Night,0,Weekday,0.95,Positive
Telangana,Hyderabad,Box8 - Desi Meals,Serlingampally Circle No 20,Paratha Rolls,Spicy Chicken Mayo Roll,229.0,4.2,1,1000455,12.973156,77.636846,6.39,Medium,43,27,70,72,-2,On Time,23,Night,0,Weekday,0.8,Positive
Kerala,Kochi,The Persian Table,Kolenchery,Vegetarian,Dal Tadka,210.0,5.0,5,1000456,12.852838,77.494136,11.7,Jam,32,92,124,82,42,Heavily Delayed,20,Night,1,Weekday,1.0,Positive
Gujarat,Ahmedabad,Mcdonald'S,Prahlad Nagar,Group Sharing Combos,Burger Combo for 2: Corn & Cheese + McVeggie,404.76,4.6,6,1000457,12.967165,77.613122,1.96,Medium,12,10,22,24,-2,On Time,23,Night,0,Weekday,0.8999999999999999,Positive
Kerala,Kochi,Pizza Hut,Kacheripady,Garlic Bread,Classic Bread Stix,119.0,4.6,94,1000458,12.864076,77.56582,6.37,High,31,37,68,60,8,Slightly Delayed,11,Afternoon,0,Weekend,0.8999999999999999,Positive
Tamil Nadu,Chennai,Wow! China,Chrompet,Noodles,Egg Hakka Noodles Regular,295.0,3.6,30,1000459,12.879704,77.582761,4.29,Low,37,15,52,58,-6,Early,10,Morning,0,Weekday,0.65,Neutral
Delhi,New Delhi,Pizza Hut,Rohini,Recommended,Classic Chicken Pepperoni & Onion,159.0,2.9,7,1000460,12.879382,77.60708,11.35,High,28,77,105,77,28,Heavily Delayed,15,Afternoon,0,Weekday,0.475,Negative
West Bengal,Kolkata,Kfc,Barasat,Rice Bowlz,Classic Chicken Rice Bowl - Biryani Style,199.0,2.7,3,1000461,13.012303,77.488519,4.18,Medium,30,31,61,51,10,Slightly Delayed,11,Afternoon,0,Weekday,0.42500000000000004,Negative
Tripura,Agartala,Anna (Truly Veg),HGB Road,Healthy Food,Corn chaat,125.0,3.7,10,1000462,13.036511,77.557846,7.41,Low,42,26,68,75,-7,Early,15,Afternoon,0,Weekday,0.675,Neutral
Madhya Pradesh,Indore,Mcdonald'S,Beside Rajnandani Hotel,Burger Combos ( 3 Pc Meals ),Crispy Veggie Burger Meal (M).,327.0,3.8,10,1000463,12.995842,77.469035,12.46,High,12,70,82,65,17,Heavily Delayed,16,Evening,0,Weekday,0.7,Neutral
Uttar Pradesh,Lucknow,Mcdonald'S,Sushant Golf City,Mccafe,  Vietnamese Iced Coffee,125.0,4.7,1,1000464,13.090543,77.7439,13.82,Medium,42,54,96,100,-4,On Time,18,Evening,0,Weekend,0.925,Positive
Telangana,Hyderabad,Sweet Truth - Cake And Desserts,Shamshabad,Recommended,Chocolate Mousse Cake (Half Kg) (Eggless),559.0,4.6,10,1000465,12.943718,77.485558,11.12,High,17,62,79,65,14,Slightly Delayed,16,Evening,0,Weekday,0.8999999999999999,Positive
West Bengal,Kolkata,China Belly By Wow! Momo,James Long,Mix Noodles Regular,Mix Chilli Basil Noodles Regular,309.0,2.4,3,1000466,12.921428,77.527557,7.01,Medium,20,41,61,52,9,Slightly Delayed,9,Morning,0,Weekday,0.35,Negative
Meghalaya,Shillong,Hotel Polo Towers,Polo,Salads,Caesar Salad,289.0,3.3,5,1000467,13.06715,77.717388,9.01,Medium,37,47,84,77,7,Slightly Delayed,17,Evening,0,Weekend,0.575,Neutral
Jharkhand,Ranchi,Kfc,Harmu Ranchi,Epic Savings Bucket For 3-4 (Up To 32% Off),Big 8 - Chicken Bucket,749.0,4.0,33,1000468,12.905899,77.594813,10.66,Medium,37,46,83,83,0,On Time,12,Afternoon,0,Weekday,0.75,Positive
Madhya Pradesh,Indore,Theobroma,Scheme No 74,Tea Cakes,Banana Cake [220g],150.0,5.0,2,1000469,13.090806,77.490691,13.25,High,38,74,112,94,18,Heavily Delayed,16,Evening,0,Weekday,1.0,Positive
Bihar,Patna,Kfc,Patliputra Colony,All Day Lunch Special Meal Box (Save Rs 115),Classic Zinger Box,399.0,4.6,11,1000470,12.853039,77.565269,13.44,Medium,29,56,85,86,-1,On Time,14,Afternoon,1,Weekday,0.8999999999999999,Positive
West Bengal,Kolkata,Daily Kitchen - Everyday Homely Meals,Chowringhee Mansions,Non-Veg Homely - Everyday Thali,Saag Wala Chicken - Everyday Thali,269.0,4.7,11,1000471,13.09247,77.48476,14.03,Jam,40,112,152,99,53,Heavily Delayed,10,Morning,0,Weekday,0.925,Positive
Assam,Guwahati,Pizza Hut,Hatigaon,Appetizer,Sprinkled Fries - New,109.0,4.1,17,1000472,12.86079,77.510065,12.35,Medium,26,53,79,79,0,On Time,21,Night,1,Weekday,0.7749999999999999,Positive
Jharkhand,Ranchi,Jashn The Restaurant,Purulia Road,Tandoor,Murgh Kali Mirch Tikka  ( 8 Pcs.),399.0,4.5,59,1000473,13.072786,77.465609,3.06,Low,23,11,34,39,-5,On Time,18,Evening,0,Weekday,0.875,Positive
Jammu and Kashmir,Srinagar,Cafe Parizaad,Rajbagh,Shawarma,Single shawarma,140.0,4.1,123,1000474,12.981925,77.581468,11.47,High,42,61,103,91,12,Slightly Delayed,10,Morning,0,Weekday,0.7749999999999999,Positive
Assam,Guwahati,Kfc,Borjhar,Recommended,Double Chicken Roll,169.0,4.8,88,1000475,13.098241,77.691991,12.4,Jam,30,96,126,83,43,Heavily Delayed,22,Night,0,Weekend,0.95,Positive
Rajasthan,Jaipur,Mcdonald'S,Malviya Nagar,Double Patty Burgers & Meals,Large EVM  Butter Paneer Grilled Double Patty Burger,364.76,4.4,1,1000476,12.868449,77.625791,13.29,Jam,43,104,147,99,48,Heavily Delayed,9,Morning,0,Weekday,0.8500000000000001,Positive
Madhya Pradesh,Indore,Burger King,Rajendra Nagar,Desserts,Chocolate Mousse Cup,119.0,4.6,48,1000477,12.988464,77.631904,13.95,Medium,27,61,88,86,2,On Time,19,Evening,1,Weekday,0.8999999999999999,Positive
Karnataka,Bengaluru,Freshmenu,Yelahanka,Bowls,All-American BBQ Steak Bowl,399.0,3.8,1,1000478,13.092326,77.510175,8.13,Medium,18,37,55,54,1,On Time,22,Night,0,Weekday,0.7,Neutral
Goa,Panaji,Highway Kitchen,Bogmalo,Non-Veg Main Course,Chicken Kali Mirch,350.0,4.6,24,1000479,12.980774,77.553168,10.17,High,27,58,85,71,14,Slightly Delayed,17,Evening,0,Weekday,0.8999999999999999,Positive
Himachal Pradesh,Shimla,Pyramid,Mall Road,"Combo""S",Dal Makhani Meal,299.0,4.6,9,1000480,13.00735,77.703573,1.13,Low,14,10,24,23,1,On Time,15,Afternoon,0,Weekend,0.8999999999999999,Positive
Karnataka,Bengaluru,Kfc,Kengeri,Boneless Chicken Popcorn,2 x Medium Chicken Popcorn,399.0,4.4,36,1000481,13.023937,77.476357,9.02,High,21,52,73,61,12,Slightly Delayed,23,Night,0,Weekend,0.8500000000000001,Positive
Punjab,Chandigarh,Kfc,Sector 15,Rolls,Korean Tangy Chicken Roll,139.0,4.5,69,1000482,12.963635,77.707379,7.62,Medium,11,34,45,45,0,On Time,22,Night,0,Weekday,0.875,Positive
Uttarakhand,Dehradun,Nazim Khan Kathi Roll,Jakhan,Recommended,Chicken Burger,100.0,4.7,46,1000483,13.00689,77.595107,14.47,High,11,80,91,72,19,Heavily Delayed,21,Night,1,Weekday,0.925,Positive
Kerala,Kochi,Chinese Wok,Central Square Mall,Extra Dip & Crispy Noodles,Extra Momo Chutney,20.0,4.7,2,1000484,12.996079,77.701144,13.62,Jam,30,104,134,88,46,Heavily Delayed,18,Evening,0,Weekday,0.925,Positive
